City_ID,City,Lat,Lng,Max Temp,Humidity,Cloudiness,Wind Speed,Country,Date
0,port-aux-francais,-49.35,70.2167,278.29,98,100,12.05,TF,1720663573
1,plettenberg bay,-34.0527,23.3716,291.0,54,68,5.34,ZA,1720663574
2,gasa,31.5,34.4667,300.03,71,0,1.69,PS,1720663575
3,yermentau,51.6214,73.1069,293.91,56,46,0.6,KZ,1720663577
4,colonia,50.9333,6.95,291.38,86,20,1.54,DE,1720663578
5,lihue,21.9789,-159.3672,300.23,74,56,6.83,US,1720663341
6,boa esperanca,-21.09,-45.5658,290.94,67,19,1.89,BR,1720663580
7,adamstown,-25.066,-130.1015,293.8,71,100,7.96,PN,1720663581
8,grytviken,-54.2811,-36.5092,270.73,93,35,5.25,GS,1720663583
9,paciran,-6.8767,112.3761,300.13,72,24,2.77,ID,1720663584
10,papatowai,-46.5619,169.4708,284.43,74,4,1.66,NZ,1720663585
11,puerto natales,-51.7236,-72.4875,275.32,98,99,2.49,CL,1720663586
12,impfondo,1.6381,18.0667,296.04,82,94,1.47,CG,1720663588
13,jamestown,42.097,-79.2353,294.92,92,100,4.12,US,1720663589
14,howard springs,-12.497,131.047,302.1,63,100,4.82,AU,1720663590
15,luderitz,-26.6481,15.1594,286.69,82,67,2.11,NA,1720663591
16,georgetown,5.4112,100.3354,302.11,74,20,1.54,MY,1720663592
17,vilyuchinsk,52.9306,158.4028,290.3,90,97,2.34,RU,1720663594
18,xai-xai,-25.0519,33.6442,287.79,29,0,4.26,MZ,1720663595
19,sandnessjoen,66.0217,12.6316,285.44,90,100,4.33,NO,1720663596
20,enriquillo,17.9,-71.2333,298.86,89,46,3.62,DO,1720663597
21,west island,-12.1568,96.8225,302.14,79,4,4.12,CC,1720663599
22,atafu village,-8.5421,-172.5159,300.73,80,99,6.28,TK,1720663600
23,afaahiti,-17.75,-149.2833,300.08,77,47,1.86,PF,1720663601
24,talnakh,69.4865,88.3972,296.56,44,59,1.15,RU,1720663604
25,iskateley,67.6803,53.1512,282.16,76,76,5.94,RU,1720663605
26,bikenibeu village,1.3673,173.1241,301.81,73,100,3.68,KI,1720663606
27,la punta,-33.1837,-66.3127,275.79,57,31,4.56,AR,1720663607
28,safford,32.834,-109.7076,310.23,22,0,0.45,US,1720663608
29,peace river,56.2501,-117.286,298.37,74,50,2.44,CA,1720663610
30,newman,37.3138,-121.0208,312.28,9,0,0.49,US,1720663611
31,ushuaia,-54.8,-68.3,275.96,65,0,12.86,AR,1720663612
32,ust-nera,64.5667,143.2,299.12,28,77,1.75,RU,1720663613
33,edinburgh of the seven seas,-37.0676,-12.3116,283.95,61,96,11.3,SH,1720663615
34,bredasdorp,-34.5322,20.0403,289.49,74,65,11.4,ZA,1720663616
35,bella vista,36.4295,-94.2316,299.66,70,0,0.0,US,1720663398
36,kuusamo,65.9667,29.1833,285.17,82,0,0.51,FI,1720663618
37,albany,42.6001,-73.9662,300.19,77,100,1.79,US,1720663619
38,codrington,-38.2667,141.9667,283.55,85,100,10.93,AU,1720663621
39,diapaga,12.0708,1.7889,298.95,73,73,3.41,BF,1720663622
40,bethel,41.3712,-73.414,298.72,82,49,2.24,US,1720663623
41,mumbwa,-14.9783,27.0619,283.97,46,1,1.9,ZM,1720663624
42,iqaluit,63.7506,-68.5145,280.76,81,95,1.79,CA,1720663625
43,pisco,-13.7,-76.2167,287.6,88,3,1.54,PE,1720663627
44,dazhou,31.2159,107.5009,296.98,94,100,1.11,CN,1720663628
45,sao joao da barra,-21.6403,-41.0511,296.16,91,7,4.63,BR,1720663629
46,coro,11.4045,-69.6734,299.74,86,100,6.9,VE,1720663630
47,berdigestyakh,62.0989,126.6992,294.83,53,44,1.39,RU,1720663632
48,blackmans bay,-43.0167,147.3167,284.67,77,100,1.79,AU,1720663633
49,hawaiian paradise park,19.5933,-154.9731,300.88,75,100,4.63,US,1720663634
50,roswell,34.0232,-84.3616,298.84,75,0,3.09,US,1720663635
51,bocas del toro,9.3333,-82.25,298.74,81,100,2.37,PA,1720663636
52,riachao das neves,-11.7461,-44.91,294.42,51,4,0.22,BR,1720663638
53,college,64.8569,-147.8028,298.33,39,75,2.57,US,1720663639
54,waitangi,-43.9535,-176.5597,280.83,89,70,4.47,NZ,1720663640
55,egilsstadir,65.2653,-14.3948,286.12,67,100,1.12,IS,1720663641
56,ingeniero jacobacci,-41.3427,-69.5448,270.48,74,1,1.82,AR,1720663643
57,aykhal,66.0,111.5,297.05,43,98,2.75,RU,1720663644
58,lebu,-37.6167,-73.65,282.0,90,83,5.03,CL,1720663646
59,necochea,-38.5473,-58.7368,276.36,62,100,4.47,AR,1720663647
60,port mathurin,-19.6833,63.4167,296.3,70,18,8.74,MU,1720663649
61,punta arenas,-53.15,-70.9167,276.21,70,20,11.83,CL,1720663650
62,hermanus,-34.4187,19.2345,291.93,87,100,14.82,ZA,1720663651
63,bilibino,68.0546,166.4372,289.02,36,42,5.58,RU,1720663652
64,yellowknife,62.456,-114.3525,291.24,59,28,6.71,CA,1720663654
65,kudahuvadhoo,2.6708,72.8944,301.18,72,12,0.69,MV,1720663655
66,kirksville,40.1948,-92.5833,292.12,96,75,0.0,US,1720663656
67,palmas,-10.2128,-48.3603,296.08,68,0,1.54,BR,1720663657
68,champerico,14.3,-91.9167,300.72,81,99,3.93,GT,1720663658
69,bubaque,11.2833,-15.8333,299.67,84,100,6.1,GW,1720663660
70,wewak,-3.5534,143.6268,301.81,79,99,1.09,PG,1720663661
71,nar'yan-mar,67.6713,53.087,282.13,76,85,5.91,RU,1720663662
72,ta`u,-14.2336,-169.5144,298.95,75,58,9.28,AS,1720663663
73,petropavlovsk-kamchatsky,53.0452,158.6483,289.48,82,75,4.0,RU,1720663665
74,haiku-pauwela,20.9219,-156.3051,301.62,65,20,9.26,US,1720663666
75,tanjung pandan,-2.75,107.65,301.08,77,33,5.04,ID,1720663667
76,uruzgan,32.8333,66.0,297.71,21,0,3.39,AF,1720663668
77,lakatoro,-16.0999,167.4164,300.27,72,56,5.85,VU,1720663669
78,okha,53.5739,142.9478,284.26,95,100,3.0,RU,1720663624
79,camiri,-20.05,-63.5167,277.23,77,2,0.45,BO,1720663672
80,kiunga,-6.1219,141.2906,296.58,90,100,1.58,PG,1720663673
81,saudarkrokur,65.7461,-19.6394,283.95,85,100,11.38,IS,1720663674
82,porto uniao,-26.2381,-51.0783,279.61,98,0,0.63,BR,1720663675
83,isafjordur,66.0755,-23.124,281.94,89,100,6.22,IS,1720663677
84,mata-utu,-13.2816,-176.1745,298.74,88,100,11.22,WF,1720663678
85,nakhon thai,17.1006,100.8374,298.91,93,99,0.34,TH,1720663679
86,margaret river,-33.95,115.0667,288.54,59,91,5.36,AU,1720663680
87,avarua,-21.2078,-159.775,295.18,78,40,3.6,CK,1720663682
88,morgan city,29.6994,-91.2068,300.93,89,83,2.35,US,1720663666
89,la passe,45.5549,-0.8967,292.28,84,50,3.04,FR,1720663684
90,gorontalo,0.5412,123.0595,295.93,96,100,2.36,ID,1720663685
91,greymouth,-42.4667,171.2,284.23,54,0,0.95,NZ,1720663686
92,taoudenni,22.6783,-3.9836,311.37,21,5,10.64,ML,1720663688
93,coswig,51.1333,13.5833,293.82,89,20,0.51,DE,1720663689
94,jaffna,9.6685,80.0074,301.55,79,62,5.85,LK,1720663690
95,sambava,-14.2667,50.1667,294.06,76,83,6.26,MG,1720663691
96,igarka,67.4667,86.5833,288.9,76,100,1.52,RU,1720663694
97,las heras,-46.5419,-68.9359,271.38,87,10,3.06,AR,1720663695
98,sitka,57.0531,-135.33,285.09,87,100,3.09,US,1720663696
99,queenstown,-31.8976,26.8753,287.57,16,51,10.89,ZA,1720663698
100,zouerate,22.7187,-12.4521,304.53,24,1,1.03,MR,1720663699
101,freetown,8.484,-13.2299,297.78,91,100,3.68,SL,1720663700
102,road town,18.4167,-64.6167,302.17,74,20,3.6,VG,1720663701
103,sandpoint,48.2766,-116.5533,307.06,30,0,0.0,US,1720663579
104,hobyo,5.3505,48.5268,297.88,84,67,11.4,SO,1720663705
105,carutapera,-1.195,-46.02,297.25,88,100,3.05,BR,1720663706
106,vadso,70.0744,29.7487,285.64,82,53,2.57,NO,1720663708
107,port alfred,-33.5906,26.891,293.95,30,71,7.15,ZA,1720663709
108,san jose de jachal,-30.2406,-68.7469,276.04,51,0,1.97,AR,1720663710
109,letterkenny,54.95,-7.7333,282.56,92,63,4.9,IE,1720663711
110,olonkinbyen,70.9221,-8.7187,276.46,98,100,8.03,SJ,1720663712
111,saint-francois,46.4154,3.9054,290.84,95,100,0.0,FR,1720663714
112,port elizabeth,-33.918,25.5701,295.43,55,97,0.89,ZA,1720663715
113,sabang,5.8933,95.3214,302.09,71,100,6.64,ID,1720663716
114,alofi,-19.0595,-169.9187,299.09,53,75,6.17,NU,1720663717
115,holualoa,19.6228,-155.9522,297.18,92,22,0.45,US,1720663719
116,whitehorse,60.7161,-135.0538,291.1,56,100,5.81,CA,1720663720
117,hailar,49.2,119.7,304.39,24,52,3.02,CN,1720663721
118,keflavik,64.0049,-22.5624,284.19,100,100,10.29,IS,1720663722
119,mora,11.0461,14.1401,298.57,72,100,1.24,CM,1720663723
120,dunedin,-45.8742,170.5036,285.82,68,7,1.3,NZ,1720663725
121,tarnogskiy gorodok,60.4997,43.5761,286.99,83,54,2.28,RU,1720663726
122,aquin,18.2833,-73.4,299.65,85,78,1.19,HT,1720663727
123,palmer,42.1584,-72.3287,299.22,70,75,6.17,US,1720663728
124,mandera,3.9366,41.867,298.4,66,95,7.93,KE,1720663730
125,bandon,51.7469,-8.7425,284.92,95,1,3.01,IE,1720663731
126,coahuayana de hidalgo,18.7,-103.6583,298.52,92,100,0.82,MX,1720663732
127,busko-zdroj,50.4708,20.7188,295.98,85,2,1.39,PL,1720663733
128,nafada,11.0956,11.3327,298.48,73,100,2.57,NG,1720663734
129,yugorsk,61.3133,63.3319,293.21,79,79,3.32,RU,1720663736
130,invercargill,-46.4,168.35,282.6,86,97,0.45,NZ,1720663654
131,laguna,38.421,-121.4238,314.99,28,0,4.63,US,1720663738
132,urengoy,65.9667,78.3667,291.2,67,80,3.03,RU,1720663739
133,hamilton,39.1834,-84.5333,295.62,81,0,0.89,US,1720663741
134,enewetak,11.3474,162.3373,301.69,77,20,6.12,MH,1720663742
135,saipan,15.1355,145.701,305.54,70,40,6.17,MP,1720663743
136,creston,41.0586,-94.3614,292.22,90,0,3.99,US,1720663744
137,tazovsky,67.4667,78.7,289.57,64,25,4.52,RU,1720663745
138,den burg,53.0542,4.7972,289.24,88,100,6.17,NL,1720663747
139,aasiaat,68.7098,-52.8699,276.65,91,100,4.5,GL,1720663748
140,north bend,43.4065,-124.2243,294.81,77,20,7.72,US,1720663751
141,nelson bay,-32.7167,152.15,291.48,68,3,0.89,AU,1720663752
142,la tuque,47.4334,-72.7824,290.86,98,100,1.07,CA,1720663753
143,ribeira grande,38.5167,-28.7,293.58,89,50,3.58,PT,1720663754
144,tibanbang,6.6315,126.1055,300.55,81,100,0.24,PH,1720663755
145,mejit,10.2753,170.8646,301.29,80,27,7.7,MH,1720663757
146,castillos,-34.1667,-53.8333,279.85,87,100,2.19,UY,1720663758
147,acapulco de juarez,16.8634,-99.8901,301.05,78,100,0.0,MX,1720663759
148,flying fish cove,-10.4217,105.6791,299.97,83,100,7.72,CX,1720663760
149,torbat-e heydariyeh,35.274,59.2195,297.09,29,0,3.33,IR,1720663762
150,progreso,21.2833,-89.6667,302.21,88,47,5.98,MX,1720663763
151,kodiak,57.79,-152.4072,283.88,93,100,5.66,US,1720663764
152,tazacorte,28.629,-17.9293,295.69,94,75,8.23,ES,1720663765
153,fort bragg,35.139,-79.006,304.0,73,0,5.14,US,1720663767
154,colwood,48.4329,-123.4859,295.57,65,20,4.63,CA,1720663768
155,kingston,17.997,-76.7936,303.68,70,20,2.57,JM,1720663769
156,bucerias,20.75,-105.3333,302.58,89,75,4.12,MX,1720663770
157,le lavandou,43.137,6.366,296.55,64,0,2.57,FR,1720663771
158,cadale,2.7603,46.3222,297.94,83,100,7.34,SO,1720663773
159,hilo,19.7297,-155.09,301.0,77,100,4.63,US,1720663774
160,simanggang,1.2472,111.4528,296.74,99,100,0.93,MY,1720663775
161,vila franca do campo,37.7167,-25.4333,295.38,99,56,1.9,PT,1720663776
162,portland,45.5234,-122.6762,304.83,36,0,4.63,US,1720663128
163,kanigiri,15.4,79.5167,301.04,66,98,8.55,IN,1720663779
164,bengkulu,-3.8004,102.2655,299.59,77,34,1.05,ID,1720663780
165,zainsk,55.3195,52.0694,292.7,94,9,2.32,RU,1720663781
166,shinjo,38.7586,140.3008,295.64,99,100,0.84,JP,1720663782
167,vera,-29.4593,-60.2126,277.05,68,17,2.34,AR,1720663783
168,richards bay,-28.783,32.0377,289.56,25,0,2.69,ZA,1720663785
169,nemuro,43.3236,145.575,286.7,97,100,3.93,JP,1720663786
170,nacozari de garcia,30.3742,-109.6908,303.07,35,99,1.62,MX,1720663787
171,mildura,-34.2,142.15,283.95,85,100,6.98,AU,1720663788
172,pudasjarvi,65.3833,26.9167,285.64,70,100,2.25,FI,1720663790
173,ilulissat,69.2167,-51.1,277.16,93,100,3.09,GL,1720663791
174,lionel town,17.8101,-77.2406,304.09,83,4,2.15,JM,1720663792
175,okhotsk,59.3833,143.3,296.67,45,71,1.03,RU,1720663793
176,qaqortoq,60.7167,-46.0333,279.02,91,100,2.43,GL,1720663795
177,enfield town,51.6515,-0.085,288.58,84,100,5.14,GB,1720663796
178,viedma,-40.8135,-62.9967,279.29,76,95,3.18,AR,1720663798
179,baise city,23.8997,106.6133,303.34,99,100,1.59,CN,1720663743
180,kabansk,52.0486,106.6528,295.68,72,44,2.09,RU,1720663801
181,kuanda,56.3161,116.0806,299.41,57,47,0.68,RU,1720663802
182,lamar,33.6668,-95.5836,300.31,75,3,2.61,US,1720663803
183,colombo,6.9319,79.8478,299.12,83,28,4.87,LK,1720663805
184,udachny,66.4167,112.4,299.03,39,69,1.88,RU,1720663806
185,longyearbyen,78.2186,15.6401,280.06,87,75,1.03,SJ,1720663807
186,crane,31.3974,-102.3501,305.85,23,100,4.96,US,1720663809
187,wailua homesteads,22.0669,-159.378,299.89,73,100,8.75,US,1720663810
188,pacific grove,36.6177,-121.9166,293.6,90,20,2.57,US,1720663812
189,black river,18.0264,-77.8487,300.79,80,2,1.13,JM,1720663814
190,klyuchi,52.2667,79.1667,293.75,66,70,2.98,RU,1720663815
191,tura,25.5198,90.2201,298.4,97,100,3.08,IN,1720663816
192,tiksi,71.6872,128.8694,290.56,40,18,1.46,RU,1720663817
193,guerrero negro,27.9769,-114.0611,294.58,81,0,6.44,MX,1720663819
194,fale old settlement,-9.3852,-171.2468,301.81,70,95,6.96,TK,1720663820
195,binhe,32.6883,112.8275,297.1,94,100,1.41,CN,1720663821
196,stanley,54.868,-1.6985,284.14,95,75,1.54,GB,1720663822
197,nizhnesortymskiy,62.4397,71.7603,294.45,47,7,1.5,RU,1720663824
198,peru,40.7537,-86.0689,295.42,84,0,1.84,US,1720663825
199,tutoia,-2.7619,-42.2744,299.3,82,5,5.79,BR,1720663826
200,vilyuysk,63.7553,121.6247,299.43,45,9,1.63,RU,1720663827
201,kavaratti,10.5669,72.642,300.25,84,100,5.14,IN,1720663829
202,kruisfontein,-34.0033,24.7314,294.2,45,100,7.77,ZA,1720663830
203,lata,40.1629,-8.3327,291.99,98,11,0.78,PT,1720663831
204,port macquarie,-31.4333,152.9167,292.08,63,0,0.89,AU,1720663832
205,kristiansund,63.1115,7.732,287.66,93,100,1.03,NO,1720663833
206,glace bay,46.1969,-59.957,295.29,91,100,1.34,CA,1720663835
207,namibe,-15.1961,12.1522,290.68,79,0,3.53,AO,1720663836
208,puerto ayora,-0.7393,-90.3518,294.57,95,63,2.6,EC,1720663837
209,bintulu,3.1667,113.0333,298.1,90,97,2.3,MY,1720663838
210,sur,22.5667,59.5289,302.68,74,100,5.34,OM,1720663840
211,rexburg,43.826,-111.7897,305.14,22,0,2.06,US,1720663841
212,shannon,52.7039,-8.8642,284.15,93,40,3.6,IE,1720663842
213,nalut,30.3333,10.85,302.92,21,0,4.24,LY,1720663843
214,khasavyurt,43.25,46.5881,294.44,75,53,1.46,RU,1720663845
215,camarinas,43.1311,-9.1817,292.55,98,95,6.17,ES,1720663846
216,brazzaville,-4.2658,15.2832,295.76,59,37,1.26,CG,1720663847
217,utrik,11.2278,169.8474,301.23,81,11,7.09,MH,1720663850
218,yigo village,13.5361,144.8886,299.77,94,40,5.52,GU,1720663851
219,alotau,-10.3069,150.4462,300.07,75,99,2.94,PG,1720663852
220,novodvinsk,64.4165,40.8122,283.01,74,6,1.12,RU,1720663853
221,new norfolk,-42.7826,147.0587,285.88,78,100,2.12,AU,1720663855
222,hood river,45.7054,-121.5215,306.65,28,0,4.92,US,1720663856
223,san antonio de pale,-1.4014,5.6325,295.35,81,100,5.64,GQ,1720663857
224,san jose de mayo,-34.3375,-56.7136,274.13,86,5,0.56,UY,1720663858
225,lerwick,60.1545,-1.1494,284.15,92,100,8.44,GB,1720663860
226,bakchar,57.0186,82.0711,290.52,82,14,2.17,RU,1720663861
227,murzuq,25.9155,13.9184,303.42,18,0,3.61,LY,1720663862
228,ramadi,33.4226,43.3058,308.51,16,0,3.54,IQ,1720663863
229,anatuya,-28.4606,-62.8347,277.71,53,100,1.94,AR,1720663864
230,funafuti,-8.5243,179.1942,305.15,74,40,2.57,TV,1720663866
231,chandler,33.3062,-111.8412,316.94,15,0,7.2,US,1720663820
232,remire-montjoly,4.9167,-52.2667,298.17,94,0,1.54,GF,1720663868
233,luanda,-8.8368,13.2343,291.25,91,4,3.88,AO,1720663869
234,chonchi,-42.6128,-73.8092,279.88,92,89,1.54,CL,1720663870
235,lugazi,0.3772,32.9197,290.85,97,100,0.62,UG,1720663872
236,sunbury,-37.5833,144.7333,285.12,81,75,10.29,AU,1720663873
237,hirara,24.8,125.2833,306.07,70,40,5.66,JP,1720663874
238,sisimiut,66.9395,-53.6735,277.96,94,100,1.53,GL,1720663875
239,poronaysk,49.2167,143.1167,289.54,82,88,3.16,RU,1720663877
240,yerofey pavlovich,53.9667,121.9667,293.1,65,100,1.2,RU,1720663878
241,novyy urgal,51.0736,132.5642,293.42,51,13,0.97,RU,1720663879
242,mahajanga,-15.7167,46.3167,292.16,63,0,2.57,MG,1720663881
243,labytnangi,66.6572,66.4183,294.08,60,57,1.18,RU,1720663882
244,kapuskasing,49.4169,-82.4331,289.15,77,1,1.03,CA,1720663883
245,touros,-5.1989,-35.4608,297.19,81,75,5.51,BR,1720663884
246,ayacucho,-13.1583,-74.2239,282.56,54,1,0.82,PE,1720663886
247,dudinka,69.4058,86.1778,294.66,51,74,7.45,RU,1720663887
248,las cruces,32.3123,-106.7783,302.37,40,75,12.86,US,1720663888
249,cukai,4.25,103.4167,301.52,73,92,4.7,MY,1720663889
250,chibougamau,49.9168,-74.3659,288.2,67,100,2.7,CA,1720663891
251,kozova,49.4354,25.1509,292.39,89,0,3.5,UA,1720663892
252,hotan,37.0997,79.9269,299.27,33,100,1.28,CN,1720663893
253,laascaanood,8.4774,47.3597,295.28,72,31,12.96,SO,1720663894
254,cabo san lucas,22.8909,-109.9124,304.76,51,0,3.6,MX,1720663779
255,lompoc,34.6391,-120.4579,295.33,89,0,5.14,US,1720663897
256,jajce,44.3422,17.2656,292.35,75,4,1.78,BA,1720663898
257,christchurch,-43.5333,172.6333,286.31,65,0,4.63,NZ,1720663716
258,bairnsdale,-37.8333,147.6167,287.62,64,99,0.45,AU,1720663900
259,port lincoln,-34.7333,135.8667,288.1,67,13,6.65,AU,1720663901
260,hithadhoo,-0.6,73.0833,301.75,74,34,2.9,MV,1720663903
261,ilha de mocambique,-15.0342,40.7358,296.93,65,20,5.16,MZ,1720663904
262,shatsk,54.0258,41.7119,287.86,79,0,3.49,RU,1720663905
263,coquimbo,-29.9533,-71.3436,282.0,75,0,2.06,CL,1720663906
264,rouissat,31.9243,5.3502,311.02,11,59,5.22,DZ,1720663908
265,jeddah,21.5169,39.2192,306.07,55,20,4.12,SA,1720663909
266,rudnyy,52.9594,63.1206,293.28,66,95,2.97,KZ,1720663910
267,thompson,55.7435,-97.8558,302.24,48,75,4.12,CA,1720663911
268,nishinoomote,30.7333,131.0,300.93,86,100,10.11,JP,1720663912
269,jolo,6.05,121.0167,301.53,77,100,3.11,PH,1720663914
270,beoumi,7.6736,-5.5764,294.92,98,66,2.47,CI,1720663915
271,ulsteinvik,62.3432,5.8487,287.77,94,100,0.89,NO,1720663916
272,sora,41.7157,13.6141,296.23,51,0,2.71,IT,1720663917
273,contai,21.7786,87.7536,304.99,62,90,5.55,IN,1720663919
274,anadyr,64.75,177.4833,282.43,52,40,6.0,RU,1720663791
275,callao,-12.0667,-77.15,290.77,77,100,6.69,PE,1720663921
276,kayangel,8.0823,134.7173,301.55,77,100,4.57,PW,1720663922
277,wyndham,37.6985,-77.6125,302.82,78,61,0.89,US,1720663924
278,borskoye,53.0333,51.7167,292.66,86,0,2.59,RU,1720663925
279,kuragino,53.8975,92.6725,291.4,78,100,1.4,RU,1720663926
280,betio village,1.358,172.9211,301.78,73,100,3.59,KI,1720663927
281,uturoa,-16.7333,-151.4333,298.77,76,28,2.37,PF,1720663929
282,sault ste. marie,46.5168,-84.3333,292.31,96,0,4.12,CA,1720663930
283,tuxpan,19.55,-103.4,292.91,99,100,1.66,MX,1720663931
284,dickinson,29.4608,-95.0513,302.65,89,100,2.96,US,1720663932
285,fortuna,40.5982,-124.1573,287.34,95,100,4.63,US,1720663933
286,hammerfest,70.6634,23.6821,283.4,81,1,4.12,NO,1720663935
287,beaufort west,-32.3567,22.583,285.35,67,53,13.33,ZA,1720663936
288,eastham,41.8301,-69.9739,297.56,93,20,4.12,US,1720663937
289,neelankarai,12.9455,80.2575,299.78,95,75,1.54,IN,1720663940
290,kaukauna,44.278,-88.272,296.21,82,10,2.33,US,1720663941
291,horta,38.5333,-28.6333,293.16,89,51,3.58,PT,1720663942
292,alva,56.1528,-3.8051,286.3,85,100,1.38,GB,1720663943
293,alice springs,-23.7,133.8833,296.9,29,0,4.12,AU,1720663945
294,springbok,-29.6643,17.8865,282.82,89,100,4.88,ZA,1720663946
295,puerto aysen,-45.4,-72.7,277.44,97,100,0.12,CL,1720663947
296,tralee,52.2704,-9.7026,284.72,94,71,2.39,IE,1720663948
297,mount isa,-20.7333,139.5,297.02,20,8,2.06,AU,1720663949
298,barra de santo antonio,-9.4047,-35.5072,296.75,80,4,5.0,BR,1720663951
299,salahonda,2.1019,-78.7217,299.49,83,100,6.86,CO,1720663952
300,palikir - national government center,6.9248,158.1611,303.62,79,100,2.57,FM,1720663953
301,port moresby,-9.4431,147.1797,301.0,67,18,6.92,PG,1720663954
302,hami,42.8,93.45,303.08,25,0,3.24,CN,1720663956
303,tabou,4.423,-7.3528,297.46,85,100,4.25,CI,1720663957
304,namtsy,62.7161,129.6658,290.01,87,99,2.0,RU,1720663958
305,tsiombe,-25.3,45.4833,289.62,90,0,1.12,MG,1720663959
306,matoury,4.8483,-52.3317,298.13,94,0,1.54,GF,1720663961
307,zeya,53.75,127.2667,299.16,37,40,2.64,RU,1720663962
308,fisterra,42.9049,-9.2629,292.45,99,94,6.51,ES,1720663963
309,tofol,5.3248,163.0078,301.69,75,90,5.68,FM,1720663964
310,olyokminsk,60.3736,120.4264,301.48,30,8,2.58,RU,1720663965
311,san luis de la loma,17.2706,-100.8939,299.85,80,100,0.49,MX,1720663967
312,mantua,45.1667,10.7833,297.73,83,0,0.45,IT,1720663968
313,bandar lampung,-5.4254,105.258,300.54,76,51,1.28,ID,1720663969
314,atamyrat,37.8357,65.2106,302.85,24,0,4.35,TM,1720663970
315,ciudad lazaro cardenas,17.9583,-102.2,299.66,82,100,0.93,MX,1720663926
316,umba,66.6871,34.3429,283.6,92,40,2.09,RU,1720663973
317,paraiba do sul,-22.1619,-43.2928,292.96,73,7,1.24,BR,1720663974
318,soe,-9.8607,124.284,298.25,40,100,3.91,ID,1720663975
319,puerto carreno,6.189,-67.4859,298.42,87,100,1.52,CO,1720663976
320,markovo,57.3206,107.0881,302.13,47,64,2.87,RU,1720663978
321,tonya,40.8862,39.2924,292.54,79,51,1.79,TR,1720663979
322,xuanzhou,30.9525,118.7553,300.04,93,100,2.73,CN,1720663981
323,budva,42.2864,18.84,300.29,88,0,0.51,ME,1720663983
324,mount gambier,-37.8333,140.7667,283.27,95,100,7.25,AU,1720663984
325,polonnaruwa,7.9333,81.0,302.1,60,27,4.8,LK,1720663985
326,yopal,5.3378,-72.3959,293.86,95,98,1.49,CO,1720663986
327,volovets,48.7109,23.1851,291.51,82,0,1.58,UA,1720663988
328,itaituba,-4.2761,-55.9836,297.46,75,5,0.14,BR,1720663989
329,rurrenabaque,-14.4413,-67.5278,287.15,85,99,0.33,BO,1720663990
330,verkhovyna,48.1557,24.7911,289.07,87,0,1.46,UA,1720663991
331,hasaki,35.7333,140.8333,302.37,83,100,6.14,JP,1720663993
332,constantia,44.1833,28.65,297.53,54,28,6.33,RO,1720663997
333,kajaani,64.2273,27.7285,287.18,82,0,2.57,FI,1720663998
334,genhe,50.7833,121.5167,302.3,30,99,1.88,CN,1720663999
335,ascension,30.2169,-90.9001,301.15,85,0,0.0,US,1720664000
336,lajedo,-8.6636,-36.32,290.03,98,40,2.17,BR,1720664001
337,lorengau,-2.0226,147.2712,302.86,75,100,6.43,PG,1720664003
338,san jose,37.3394,-121.895,306.35,43,20,5.66,US,1720664004
339,key west,24.5557,-81.7826,305.15,74,0,2.57,US,1720663926
340,altai,46.3722,96.2583,284.95,91,100,2.94,MN,1720664006
341,obock,12.25,43.0833,302.22,28,100,2.77,DJ,1720664007
342,sinabang,2.4803,96.3801,301.12,77,86,2.6,ID,1720664009
343,ballina,-28.8667,153.5667,292.47,62,55,4.57,AU,1720664010
344,mountain home,43.133,-115.6912,312.05,13,0,3.13,US,1720663919
345,imam qasim,32.298,44.6828,303.18,12,0,3.97,IQ,1720664012
346,cananeia,-25.0147,-47.9267,288.78,92,99,1.32,BR,1720664014
347,nyala,12.05,24.8833,296.6,83,100,1.96,SD,1720664015
348,celendin,-6.8703,-78.1517,285.48,86,6,1.75,PE,1720664017
349,vorgashor,67.5833,63.95,285.62,96,100,4.62,RU,1720664018
350,gaalkacyo,6.7697,47.4308,296.51,69,13,8.47,SO,1720664020
351,prince george,53.9166,-122.753,300.72,38,58,2.24,CA,1720663884
352,harrison,30.4091,-89.0436,300.4,84,0,0.0,US,1720664022
353,awjilah,29.1081,21.2869,300.19,62,0,4.93,LY,1720664023
354,macheng,31.1783,115.0319,298.14,96,100,2.36,CN,1720664024
355,twon-brass,4.3151,6.2418,298.79,83,100,6.74,NG,1720664026
356,sosnovo-ozerskoye,52.5249,111.5418,301.23,36,40,2.56,RU,1720664027
357,margate,51.3813,1.3862,287.42,86,4,0.45,GB,1720664028
358,tshabong,-26.05,22.45,283.4,16,3,4.83,BW,1720664029
359,tonghae,37.5439,129.1069,300.1,62,1,2.36,KR,1720664030
360,bang saphan,11.2126,99.5117,302.85,67,81,2.64,TH,1720664032
361,nova sintra,14.8667,-24.7167,297.54,80,100,5.28,CV,1720664033
362,kiffa,16.6166,-11.4045,307.19,42,18,5.07,MR,1720664034
363,fada,7.25,4.0667,295.11,99,100,0.55,NG,1720664035
364,mendefera,14.8872,38.8153,290.28,88,68,0.37,ER,1720664038
365,carnarvon,-24.8667,113.6333,291.75,58,81,7.48,AU,1720664039
366,konarka,19.9,86.1167,302.13,71,100,6.63,IN,1720664040
367,badger,64.8,-147.5333,298.29,38,75,2.57,US,1720664041
368,praia da vitoria,38.7333,-27.0667,295.29,83,75,3.67,PT,1720664043
369,ambalavao,-21.8333,46.9333,283.26,92,58,2.09,MG,1720664044
370,mongo,12.1844,18.693,298.13,74,100,1.16,TD,1720664045
371,delijan,33.9905,50.6838,301.5,22,0,2.42,IR,1720664046
372,bor,56.3567,44.0669,287.11,70,0,2.16,RU,1720664048
373,sao sepe,-30.1606,-53.5653,280.09,88,100,0.95,BR,1720664049
374,port douglas,-16.4833,145.4667,297.32,69,28,4.66,AU,1720664050
375,jean-rabel,19.8533,-73.1917,300.27,82,43,4.83,HT,1720664051
376,arkalyk,50.2486,66.9114,295.12,49,9,5.34,KZ,1720664052
377,laojunmiao,39.8333,97.7333,295.07,38,17,1.62,CN,1720664054
378,kourou,5.1552,-52.6478,298.18,94,77,2.71,GF,1720664055
379,beterou,9.1992,2.2586,295.61,97,100,1.49,BJ,1720664056
380,namdrik,5.5994,168.1028,301.68,77,71,3.92,MH,1720664057
381,hastings,50.8552,0.5729,287.75,87,7,4.53,GB,1720664059
382,paghman,34.5875,68.9533,290.41,33,0,1.1,AF,1720664060
383,tonnay-charente,45.95,-0.9,291.57,89,39,2.56,FR,1720664061
384,port alberni,49.2413,-124.8028,300.86,50,0,4.02,CA,1720664062
385,csorna,47.6115,17.2501,297.31,86,29,5.16,HU,1720664064
386,inarajan village,13.2736,144.7484,300.69,75,100,4.54,GU,1720664065
387,kalymnos,36.95,26.9833,298.89,73,20,2.57,GR,1720664066
388,hadibu,12.65,54.0333,299.15,86,96,10.45,YE,1720664067
389,pimentel,-6.8367,-79.9342,291.31,82,0,6.17,PE,1720664070
390,al qitena,14.8648,32.3668,301.76,47,100,3.27,SD,1720664071
391,villa gesell,-37.2639,-56.973,273.74,65,5,4.59,AR,1720664072
392,barrouallie,13.2333,-61.2667,298.94,89,75,4.12,VC,1720664074
393,bereeda,11.8704,51.0579,303.17,62,98,5.65,SO,1720664075
394,polyarnyy,69.1989,33.4478,283.98,72,14,3.32,RU,1720664076
395,shizuishan,39.2333,106.7694,303.33,26,99,1.03,CN,1720664077
396,esmeralda,21.8525,-78.1169,299.76,83,1,4.1,CU,1720664079
397,nanyamba,-10.6833,39.8333,288.06,97,37,1.96,TZ,1720664080
398,erdenet,49.0333,104.0833,292.97,75,100,1.65,MN,1720664081
399,sievi,63.9,24.5,287.5,72,100,2.51,FI,1720664082
400,sadovoye,47.7764,44.5089,297.94,42,100,3.25,RU,1720664083
401,revda,56.801,59.9303,291.91,76,100,1.23,RU,1720664085
402,mindelo,16.8901,-24.9804,296.9,73,20,8.23,CV,1720664086
403,puerto baquerizo moreno,-0.9,-89.6,293.64,86,80,4.5,EC,1720664088
404,angaur state,6.906,134.13,300.54,81,100,4.19,PW,1720664090
405,mawlaik,23.6333,94.4167,296.96,100,100,0.94,MM,1720664091
406,leer,53.2316,7.461,288.14,94,95,3.55,DE,1720664092
407,broome,42.2506,-75.833,297.98,96,100,1.34,US,1720664093
408,jayapura,-2.5333,140.7,303.81,80,100,0.66,ID,1720664095
409,harlingen,26.1906,-97.6961,301.51,100,76,4.13,US,1720664096
410,the pas,53.8251,-101.2541,301.16,47,0,2.06,CA,1720664097
411,port blair,11.6667,92.75,301.71,78,100,5.97,IN,1720664098
412,ancud,-41.8697,-73.8203,279.38,85,28,2.9,CL,1720664100
413,nusaybin,37.0778,41.2178,303.87,19,0,1.42,TR,1720664101
414,susuman,62.7833,148.1667,296.15,32,1,4.22,RU,1720664102
415,maceio,-9.6658,-35.7353,296.84,88,75,1.03,BR,1720664104
416,galliano,29.4422,-90.2992,300.37,89,0,0.0,US,1720664105
417,lazaro cardenas,17.9583,-102.2,299.66,82,100,0.93,MX,1720663926
418,kerikeri,-35.2268,173.9474,289.77,71,48,2.24,NZ,1720664107
419,opuwo,-18.0607,13.84,286.13,23,0,1.7,NA,1720664108
420,kavieng,-2.5744,150.7967,302.21,75,62,3.96,PG,1720664110
421,pozega,45.3403,17.6853,296.35,52,5,0.9,HR,1720664111
422,phalaborwa,-23.943,31.1411,293.75,13,0,3.0,ZA,1720664112
423,kuyeda,56.4311,55.5886,292.93,83,1,1.72,RU,1720664113
424,nouadhibou,20.931,-17.0347,292.77,85,70,8.14,MR,1720664116
425,puerto leguizamo,-0.1934,-74.7819,295.75,91,99,0.73,CO,1720664117
426,huambo,-12.7761,15.7392,282.92,24,0,1.04,AO,1720664118
427,akhmet'a,42.0311,45.2075,293.44,80,99,2.19,GE,1720664120
428,chulym,55.0997,80.9572,291.87,88,64,4.08,RU,1720664121
429,balabac,7.9868,117.0645,297.86,93,100,2.14,PH,1720664122
430,victoria falls,-17.9235,25.843,284.17,32,0,0.27,ZW,1720664123
431,sibolga,1.7427,98.7792,301.26,68,68,0.42,ID,1720664126
432,gadzhiyevo,69.2551,33.3362,284.19,72,17,3.2,RU,1720664127
433,ghat,24.9647,10.1728,303.93,18,1,1.27,LY,1720664128
434,karratha,-20.7377,116.8463,300.66,42,0,4.62,AU,1720664129
435,manoharpur,27.3,75.95,303.46,70,63,6.72,IN,1720664131
436,yalutorovsk,56.6536,66.3006,294.15,77,2,2.17,RU,1720664132
437,niquelandia,-14.4739,-48.4597,293.2,37,0,1.03,BR,1720664133
438,arteche,12.2645,125.4048,303.95,66,88,2.64,PH,1720664134
439,san patricio,28.017,-97.5169,302.09,65,13,4.18,US,1720664020
440,geraldton,-28.7667,114.6,288.38,82,100,2.06,AU,1720664137
441,ulladulla,-35.35,150.4667,289.12,53,59,1.86,AU,1720664138
442,malkapur,20.8833,76.2,299.41,85,100,4.14,IN,1720664139
443,buka,40.8108,69.1986,301.19,32,0,1.42,UZ,1720664140
444,siedlce,52.1677,22.2901,294.21,86,38,3.43,PL,1720664142
445,lagunas,-5.2269,-75.6753,298.07,81,72,0.63,PE,1720664143
446,qamdo,31.1667,97.2333,287.56,62,26,0.31,CN,1720664145
447,fort drum,44.0584,-75.7619,293.62,94,100,4.12,US,1720664146
448,swakopmund,-22.6833,14.5333,286.73,67,0,0.37,NA,1720664148
449,arraial do cabo,-22.9661,-42.0278,295.41,91,3,3.74,BR,1720664149
450,walvis bay,-22.9575,14.5053,286.94,53,0,2.56,NA,1720664150
451,santa ana de yacuma,-13.75,-65.4333,288.03,63,0,2.79,BO,1720664154
452,tokmak,47.2514,35.7058,295.91,35,79,4.59,UA,1720664155
453,shingu,33.7333,135.9833,298.72,90,100,3.95,JP,1720664156
454,kununurra,-15.7667,128.7333,304.14,27,6,5.14,AU,1720664158
455,minot,48.2325,-101.2963,300.27,57,0,3.6,US,1720664159
456,tvoroyri,61.5556,-6.8111,283.58,81,0,4.09,FO,1720664160
457,calceta,-0.85,-80.1667,296.82,89,94,0.71,EC,1720664161
458,dumas,35.8656,-101.9732,301.82,32,0,2.06,US,1720664162
459,benguela,-12.5763,13.4055,292.34,87,4,2.06,AO,1720664164
460,al muwayh,22.4333,41.7583,301.34,18,99,3.06,SA,1720664165
461,rozhniv,48.366,25.2258,292.26,85,0,1.42,UA,1720664166
462,ha tinh,18.3333,105.9,306.15,52,62,3.13,VN,1720664167
463,playa del ingles,27.7567,-15.5787,297.08,75,0,3.37,ES,1720664168
464,ola,59.5833,151.2833,294.26,49,0,2.88,RU,1720664170
465,motozintla,15.3667,-92.2333,289.02,96,100,1.86,MX,1720664171
466,marsh harbour,26.5412,-77.0636,301.4,67,100,5.58,BS,1720664172
467,big spring,32.2504,-101.4787,303.4,40,0,4.12,US,1720664173
468,nova vicosa,-17.8919,-39.3719,295.45,87,0,3.4,BR,1720664175
469,mont-dore,-22.2833,166.5833,298.14,99,100,6.51,NC,1720664176
470,tosontsengel,48.7567,98.2839,289.01,75,100,1.88,MN,1720664177
471,muborak,39.2553,65.1528,304.32,22,0,2.73,UZ,1720664178
472,prado,-17.3411,-39.2208,296.14,84,0,3.86,BR,1720664180
473,kone,-21.0595,164.8658,300.44,56,100,5.36,NC,1720664181
474,marion,39.7684,-86.1555,296.64,80,40,3.09,US,1720664182
475,fuglafjordur,62.244,-6.814,280.41,80,0,2.84,FO,1720664183
476,bhadrachalam,17.6667,80.8833,300.46,86,99,1.26,IN,1720664184
477,gaiman,-43.2897,-65.4929,275.95,83,5,3.76,AR,1720664186
478,booue,-0.0921,11.9385,297.24,80,83,1.95,GA,1720664187
479,timra,62.487,17.3257,286.97,88,100,2.06,SE,1720664188
480,al buraymi,24.2509,55.7931,304.83,62,97,7.72,OM,1720664189
481,beolgyo,34.8449,127.3429,299.04,79,100,1.1,KR,1720664191
482,kidal,18.4411,1.4078,306.5,11,99,3.45,ML,1720664192
483,sangmelima,2.9333,11.9833,292.24,100,73,1.01,CM,1720664193
484,zeribet el oued,34.6828,6.5111,306.05,24,1,2.51,DZ,1720664194
485,el granada,37.5027,-122.4694,302.63,70,20,8.75,US,1720664195
486,lienz,46.8289,12.769,293.25,79,0,1.68,AT,1720664197
487,bulungu,-4.55,18.6,296.01,22,97,1.02,CD,1720664198
488,motueka,-41.1333,173.0167,285.98,58,0,1.03,NZ,1720664199
489,dawukou,39.0419,106.3958,303.9,26,100,1.09,CN,1720664200
490,solan,30.9167,77.1167,297.31,67,8,1.3,IN,1720664203
491,sola,-13.8833,167.55,299.18,82,100,8.69,VU,1720664204
492,dryden,49.7833,-92.7503,297.31,53,0,1.54,CA,1720664205
493,huarmey,-10.0681,-78.1522,290.29,83,7,4.34,PE,1720664208
494,umm kaddadah,13.6017,26.6876,300.34,63,100,3.25,SD,1720664209
495,mana,5.6592,-53.7767,298.68,89,19,4.02,GF,1720664210
496,makaha,21.4694,-158.2175,301.1,65,100,3.09,US,1720664212
497,narasannapeta,18.4167,84.05,302.55,73,100,4.17,IN,1720664213
498,jinhua,29.1078,119.6547,307.34,55,36,1.38,CN,1720664214
499,kirensk,57.7853,108.1119,302.62,48,44,3.8,RU,1720664215
500,broken hill,-31.95,141.4333,285.11,66,100,9.07,AU,1720664216
501,mariental,-24.6333,17.9667,284.57,19,0,3.77,NA,1720664219
502,sydney,-33.8679,151.2073,290.77,62,0,4.12,AU,1720664085
503,vila velha,-20.3297,-40.2925,297.12,85,0,4.63,BR,1720664221
504,xilin hot,43.9667,116.0333,300.58,40,87,1.01,CN,1720664223
505,merlo,-32.3429,-65.014,274.13,71,7,2.75,AR,1720664224
506,nizhneangarsk,55.7833,109.55,292.03,72,81,1.11,RU,1720664225
507,seven pagodas,12.6264,80.1722,299.79,68,100,3.92,IN,1720664226
508,usakos,-22.0,15.6,287.24,17,0,1.77,NA,1720664227
509,anshun,26.25,105.9333,295.89,83,100,5.64,CN,1720664229
510,puerto deseado,-47.7503,-65.8938,273.92,88,6,6.96,AR,1720664230
511,capao bonito,-24.0058,-48.3494,285.37,99,100,0.98,BR,1720664231
512,mao,39.8885,4.2658,296.46,100,75,0.0,ES,1720664232
513,pyhajarvi,67.0701,27.2176,284.35,77,99,1.6,FI,1720664234
514,san luis,-33.295,-66.3356,275.97,55,32,4.74,AR,1720664235
515,nyurba,63.2842,118.3319,300.1,46,6,0.88,RU,1720664237
516,el gouna,27.3942,33.6782,301.61,66,0,1.13,EG,1720664239
517,manokwari,-0.8667,134.0833,300.38,76,99,0.73,ID,1720664240
518,cape town,-33.9258,18.4232,289.47,88,100,15.95,ZA,1720664178
519,homer,59.6425,-151.5483,289.71,56,100,2.57,US,1720664242
520,horqueta,-23.3428,-57.0597,286.0,43,79,2.1,PY,1720664243
521,mahanoro,-19.9,48.8,291.11,79,99,2.39,MG,1720664245
522,mazamari,-11.3258,-74.5308,293.83,93,63,0.77,PE,1720664246
523,kailua-kona,19.6406,-155.9956,299.25,92,26,0.89,US,1720664247
524,manta,-0.95,-80.7333,296.03,83,75,5.66,EC,1720664111
525,erenhot,43.6475,111.9767,303.55,26,85,2.62,CN,1720664249
526,illizi,26.4833,8.4667,303.04,16,0,1.2,DZ,1720664251
527,minas de marcona,-15.2119,-75.1103,283.32,87,72,6.26,PE,1720664252
528,pritzwalk,53.1494,12.1741,292.92,96,93,2.33,DE,1720664253
529,kilindoni,-7.9139,39.6668,298.44,73,52,8.03,TZ,1720664254
530,zuni pueblo,35.0725,-108.8506,304.5,14,24,8.25,US,1720664256
531,isangel,-19.55,169.2667,299.21,69,75,7.72,VU,1720664257
532,nallihan,40.1859,31.3518,290.57,84,8,1.76,TR,1720664258
533,yuzhno-kurilsk,44.0306,145.8556,289.49,91,100,2.21,RU,1720664259
534,adrar,20.5022,-10.0711,305.84,29,0,4.42,MR,1720664262
535,kismayo,-0.3582,42.5454,298.22,74,100,6.52,SO,1720664263
536,taguatinga,-12.3857,-46.5711,296.3,36,0,2.51,BR,1720664264
537,misratah,32.3754,15.0925,299.16,72,0,3.93,LY,1720664265
538,armasesti,44.75,26.5833,294.46,64,22,3.52,RO,1720664267
539,weno,7.4515,151.8468,305.12,79,75,3.09,FM,1720664269
540,middelburg,-25.7751,29.4648,280.82,18,0,1.19,ZA,1720664270
541,labrador city,52.9463,-66.9114,287.1,58,20,3.6,CA,1720664272
542,malabar,-33.9667,151.25,290.44,58,75,3.6,AU,1720664273
543,gusinoozyorsk,51.2833,106.5,295.3,62,67,1.16,RU,1720664274
544,lamu,-2.2717,40.902,297.95,79,55,6.69,KE,1720664275
545,manavalakurichi,8.1333,77.3,301.4,86,100,6.44,IN,1720664277
546,tidjikja,18.5564,-11.4271,304.75,39,24,2.89,MR,1720664278
547,liman,48.9884,37.8023,295.19,61,36,2.73,UA,1720664279
548,unai,-16.3575,-46.9061,293.66,43,0,0.63,BR,1720664280
549,vavuniya,8.7514,80.4971,300.64,74,45,3.86,LK,1720664281
550,daru,-9.0763,143.2092,298.79,80,92,6.28,PG,1720664283
551,coos bay,43.3665,-124.2179,292.59,77,20,7.72,US,1720664284
552,st. john's,47.5649,-52.7093,291.92,95,40,8.23,CA,1720664285
553,thomson,33.4707,-82.5046,301.16,68,0,1.54,US,1720664287
554,alaghsas,17.0187,8.0168,307.22,26,69,3.92,NE,1720664289
555,kenai,60.5544,-151.2583,292.05,56,75,3.09,US,1720664290
556,dalbandin,28.8947,64.4101,304.33,15,28,3.14,PK,1720664291
557,mahibadhoo,3.7833,72.9667,301.22,75,78,2.3,MV,1720664292
558,mount pearl,47.5166,-52.7813,291.11,97,40,8.23,CA,1720664123
559,shiqian,27.5225,108.2281,302.31,66,100,3.85,CN,1720664295
560,kaspiysk,42.8816,47.6392,297.25,83,86,3.0,RU,1720664296
561,noosa heads,-26.3833,153.15,295.43,77,95,7.66,AU,1720664297
562,arvayheer,46.2639,102.775,293.56,49,84,3.17,MN,1720664298
563,tuquerres,1.0923,-77.6209,280.36,95,90,2.22,CO,1720664300
564,catia la mar,10.6038,-67.0303,300.26,83,25,4.63,VE,1720664301
565,tarawa,1.419,172.984,301.87,73,100,3.61,KI,1720664302
566,dobryanka,58.4619,56.4165,290.24,97,97,2.74,RU,1720664303
567,amga,60.8953,131.9608,295.64,63,83,0.58,RU,1720664305
568,rudbar,30.15,62.6,304.56,20,31,8.0,AF,1720664306
569,inhambane,-23.865,35.3833,289.59,70,0,3.66,MZ,1720664307
570,fort polk south,31.0511,-93.2158,300.16,78,0,0.0,US,1720664308
571,ostersund,63.1792,14.6357,284.6,100,100,4.02,SE,1720664310
572,turbat,26.0023,63.044,303.14,72,11,3.65,PK,1720664311
573,noshiro,40.2039,140.0242,297.61,80,100,5.21,JP,1720664312
574,rongelap,11.1635,166.8941,301.48,76,14,6.23,MH,1720664313
575,maihar,24.2667,80.75,303.39,67,100,4.78,IN,1720664314
576,craig,40.5153,-107.5464,300.12,28,0,5.14,US,1720664316
577,saynshand,44.8824,110.1163,304.48,24,35,5.08,MN,1720664317
578,maintirano,-18.0667,44.0167,292.93,81,3,2.93,MG,1720664318
579,la ceiba,15.7597,-86.7822,299.05,89,20,1.54,HN,1720664319
580,gereshk,31.8209,64.5701,303.88,15,0,4.47,AF,1720664321
581,borgo valsugana,46.0514,11.4544,295.94,83,5,1.47,IT,1720664322
582,mako,46.2167,20.4833,298.83,46,0,1.5,HU,1720664323
583,kapa'a,22.0752,-159.319,301.19,71,100,8.75,US,1720664324
584,sirte,31.2089,16.5887,298.85,79,0,3.4,LY,1720664327
585,belo sur tsiribihina,-19.7,44.55,288.97,92,2,1.43,MG,1720664328
586,gamba,-2.65,10.0,293.09,92,8,1.78,GA,1720664331
587,ratnagiri,16.9833,73.3,300.05,85,100,2.51,IN,1720664332
588,agapovka,53.2973,59.1348,291.71,91,100,2.85,RU,1720664333
589,kilju,40.9642,129.3278,303.57,43,14,3.76,KP,1720664334
590,inebolu,41.9747,33.7608,295.84,74,0,1.81,TR,1720664336
591,saldanha,-33.0117,17.9442,287.18,94,100,12.82,ZA,1720664337
592,jawhar,2.7809,45.5005,296.18,80,97,5.83,SO,1720664338
593,pitea,65.3172,21.4794,287.2,90,100,1.21,SE,1720664339
594,changchun,43.88,125.3228,297.13,53,72,1.64,CN,1720664340
595,i-n-salah,27.1935,2.4607,309.39,12,0,4.34,DZ,1720664342
596,silapathar,26.206,93.8095,299.57,88,99,2.61,IN,1720664343
597,turpan,42.9333,89.1667,308.35,21,7,1.58,CN,1720664344
598,piskent,40.8972,69.3506,301.19,29,0,0.48,UZ,1720664345
599,la malbaie,47.6575,-70.1559,293.62,99,100,1.52,CA,1720664347
600,kapshagay,43.8833,77.0833,298.31,47,11,0.48,KZ,1720664348
