City_ID,City,Lat,Lng,Max Temp,Humidity,Cloudiness,Wind Speed,Country,Date
0,puerto ayora,-0.7393,-90.3518,294.57,97,88,2.68,EC,1720827203
1,udachny,66.4167,112.4,298.11,54,26,4.52,RU,1720827204
2,illizi,26.4833,8.4667,305.04,18,0,4.29,DZ,1720827206
3,whitehorse,60.7161,-135.0538,290.43,48,75,7.72,CA,1720827168
4,margaret river,-33.95,115.0667,284.02,78,97,2.84,AU,1720827209
5,port-aux-francais,-49.35,70.2167,273.25,78,100,17.01,TF,1720827210
6,ushuaia,-54.8,-68.3,278.96,75,20,13.89,AR,1720826990
7,saint-francois,46.4154,3.9054,284.84,95,17,1.54,FR,1720827213
8,armacao de buzios,-22.7469,-41.8817,295.18,91,98,5.5,BR,1720827214
9,georgetown,5.4112,100.3354,300.11,84,20,1.03,MY,1720827215
10,jamestown,42.097,-79.2353,297.95,83,40,2.57,US,1720827137
11,adamstown,-25.066,-130.1015,292.9,72,100,7.0,PN,1720827218
12,inhambane,-23.865,35.3833,291.94,81,0,3.96,MZ,1720827219
13,college,64.8569,-147.8028,298.75,32,40,5.66,US,1720827220
14,iqaluit,63.7506,-68.5145,285.0,54,75,8.75,CA,1720827221
15,egilsstadir,65.2653,-14.3948,286.1,67,0,3.6,IS,1720827222
16,yellowknife,62.456,-114.3525,291.71,54,75,3.09,CA,1720827224
17,beloyarskiy,63.7119,66.6722,285.11,93,100,3.18,RU,1720827225
18,afaahiti,-17.75,-149.2833,300.08,84,97,8.55,PF,1720827226
19,bethel,41.3712,-73.414,300.08,75,83,1.81,US,1720827227
20,longyearbyen,78.2186,15.6401,279.06,81,75,6.17,SJ,1720827229
21,mirny,62.5353,113.9611,294.38,60,0,4.57,RU,1720827230
22,paredon,16.0333,-93.8667,302.55,77,91,1.54,MX,1720827231
23,invercargill,-46.4,168.35,279.53,64,0,0.53,NZ,1720827232
24,grytviken,-54.2811,-36.5092,273.85,88,100,7.69,GS,1720827234
25,talnakh,69.4865,88.3972,289.09,95,100,1.87,RU,1720827235
26,ribeira grande,38.5167,-28.7,296.36,92,75,3.13,PT,1720827236
27,al kharijah,25.4514,30.5464,306.94,18,19,5.07,EG,1720827238
28,port elizabeth,-33.918,25.5701,285.55,87,0,1.03,ZA,1720827239
29,raton,36.9034,-104.4391,305.34,21,0,7.2,US,1720827240
30,namibe,-15.1961,12.1522,289.98,84,55,2.38,AO,1720827241
31,west island,-12.1568,96.8225,300.14,78,20,4.12,CC,1720827243
32,port mathurin,-19.6833,63.4167,295.89,69,82,12.78,MU,1720827244
33,wanning,18.8003,110.3967,302.01,78,100,2.02,CN,1720827245
34,garoowe,8.4054,48.4845,297.82,71,14,13.52,SO,1720827246
35,kone,-21.0595,164.8658,301.24,60,3,0.51,NC,1720827249
36,west bay,19.3667,-81.4167,304.29,70,20,5.66,KY,1720827250
37,utrik,11.2278,169.8474,301.14,83,100,9.21,MH,1720827253
38,vilyuysk,63.7553,121.6247,295.98,60,0,3.21,RU,1720827255
39,waitangi,-43.9535,-176.5597,283.61,82,89,2.24,NZ,1720827257
40,thompson,55.7435,-97.8558,294.24,56,100,3.09,CA,1720827258
41,liberty,31.8335,-81.5004,302.58,37,75,2.57,US,1720827259
42,qulsary,46.9531,54.0198,292.98,53,21,10.68,KZ,1720827260
43,ta`u,-14.2336,-169.5144,299.52,85,98,5.76,AS,1720827262
44,okhotsk,59.3833,143.3,292.39,58,89,1.85,RU,1720827263
45,kapa'a,22.0752,-159.319,300.48,75,100,7.2,US,1720827264
46,kodiak,57.79,-152.4072,282.88,93,100,8.75,US,1720827265
47,blackmans bay,-43.0167,147.3167,280.66,81,15,1.16,AU,1720827266
48,mar del plata,-38.0023,-57.5575,280.98,82,4,3.13,AR,1720827268
49,nouadhibou,20.931,-17.0347,294.14,88,75,3.6,MR,1720827269
50,enewetak,11.3474,162.3373,301.81,76,74,8.5,MH,1720827270
51,bilibino,68.0546,166.4372,291.2,35,82,1.08,RU,1720827271
52,cidreira,-30.1811,-50.2056,283.99,84,100,4.6,BR,1720827273
53,alice springs,-23.7,133.8833,281.9,76,0,2.57,AU,1720827274
54,tiksi,71.6872,128.8694,274.79,87,100,4.74,RU,1720827275
55,saldanha,-33.0117,17.9442,284.92,81,75,5.0,ZA,1720827276
56,magadan,59.5667,150.8,288.29,68,14,2.23,RU,1720827278
57,adler,43.43,39.92,296.24,78,49,4.0,RU,1720827279
58,tamanrasset,22.785,5.5228,305.1,10,23,4.12,DZ,1720827280
59,caninde de sao francisco,-9.66,-37.7894,294.87,87,91,3.41,BR,1720827281
60,fort st. john,56.2499,-120.8529,295.09,37,75,2.06,CA,1720827283
61,manismata,-2.4667,111.0333,296.65,88,100,1.28,ID,1720827284
62,angaur state,6.906,134.13,301.18,75,91,2.64,PW,1720827285
63,posto fiscal rolim de moura,-13.0833,-62.2667,293.05,57,8,1.98,BR,1720827286
64,puerto natales,-51.7236,-72.4875,275.06,92,45,2.52,CL,1720827288
65,sao jose da coroa grande,-8.8978,-35.1478,297.58,75,54,6.57,BR,1720827289
66,rio grande,-32.035,-52.0986,282.21,82,12,3.47,BR,1720827290
67,iskateley,67.6803,53.1512,283.06,77,97,2.87,RU,1720827291
68,grande prairie,55.1667,-118.8027,297.25,29,75,3.6,CA,1720826997
69,arraial do cabo,-22.9661,-42.0278,295.4,91,100,4.47,BR,1720827294
70,albany,42.6001,-73.9662,298.85,82,99,0.45,US,1720827295
71,edinburgh of the seven seas,-37.0676,-12.3116,284.33,63,96,12.45,SH,1720827296
72,vorgashor,67.5833,63.95,281.18,77,100,1.63,RU,1720827298
73,nangong,37.3581,115.3744,300.32,70,11,3.01,CN,1720827299
74,ola,59.5833,151.2833,287.7,68,15,2.72,RU,1720827300
75,codrington,-38.2667,141.9667,282.99,83,99,1.7,AU,1720827301
76,kupang,-10.1667,123.5833,298.47,78,20,1.54,ID,1720827303
77,acarau,-2.8856,-40.12,299.05,78,38,6.74,BR,1720827304
78,nadym,65.5333,72.5167,284.98,77,66,7.01,RU,1720827305
79,baruun-urt,46.6806,113.2792,298.56,47,16,4.5,MN,1720827306
80,lihue,21.9789,-159.3672,300.07,76,100,7.2,US,1720827308
81,nuuk,64.1835,-51.7216,277.93,96,100,6.58,GL,1720827309
82,nadi,-17.8,177.4167,300.15,57,40,4.12,FJ,1720827310
83,nova xavantina,-14.6667,-52.35,298.0,35,47,1.49,BR,1720827311
84,ketchikan,55.3422,-131.6461,290.41,67,100,5.14,US,1720827022
85,palangkaraya,-2.2,113.8333,297.0,82,51,0.9,ID,1720827314
86,punta arenas,-53.15,-70.9167,279.21,81,75,7.72,CL,1720827315
87,port lincoln,-34.7333,135.8667,285.74,79,53,3.45,AU,1720827316
88,jalai nur,49.45,117.7,297.96,49,18,3.08,CN,1720827317
89,omagh,54.6,-7.3,285.57,99,100,1.67,GB,1720827319
90,mount gambier,-37.8333,140.7667,284.07,80,57,2.21,AU,1720827320
91,hamilton,39.1834,-84.5333,303.04,68,75,1.54,US,1720827321
92,bredasdorp,-34.5322,20.0403,281.42,87,34,1.9,ZA,1720827322
93,tughyl,47.7252,84.2063,293.94,56,82,2.53,KZ,1720827324
94,pambujan,12.5642,124.9276,300.72,83,98,1.61,PH,1720827325
95,atafu village,-8.5421,-172.5159,302.17,69,16,7.66,TK,1720827326
96,yeppoon,-23.1333,150.7333,293.85,55,20,4.29,AU,1720827327
97,acapulco de juarez,16.8634,-99.8901,305.05,62,75,4.12,MX,1720827226
98,weno,7.4515,151.8468,304.12,79,100,4.12,FM,1720827330
99,uturoa,-16.7333,-151.4333,298.86,85,33,6.94,PF,1720827333
100,pustoshka,56.3355,29.369,289.6,95,58,1.07,RU,1720827334
101,punta alta,-38.8759,-62.0736,279.2,58,0,4.13,AR,1720827335
102,lazaro cardenas,17.9583,-102.2,301.73,77,95,1.98,MX,1720827336
103,usogorsk,63.4106,48.6872,284.33,78,98,1.98,RU,1720827337
104,islamorada,24.9243,-80.6278,302.6,83,100,1.28,US,1720827339
105,papatowai,-46.5619,169.4708,280.85,71,6,3.24,NZ,1720827340
106,lahat,-3.8,103.5333,295.69,95,100,0.6,ID,1720827341
107,tamandare,-8.7597,-35.1047,297.26,77,59,6.02,BR,1720827342
108,tolanaro,-25.0319,46.9987,294.19,64,0,7.2,MG,1720827344
109,ban karon,7.8477,98.2985,300.81,99,99,6.79,TH,1720827345
110,leava,-14.3,-178.1667,298.34,93,100,5.99,WF,1720827346
111,westport,41.1415,-73.3579,300.06,79,100,3.09,US,1720827193
112,povoa de lanhoso,41.5787,-8.282,292.47,79,86,0.99,PT,1720827349
113,sidareja,-7.4846,108.7923,296.09,93,96,0.9,ID,1720827350
114,moroto,2.5345,34.6666,292.65,76,67,1.88,UG,1720827351
115,new norfolk,-42.7826,147.0587,281.32,75,32,0.98,AU,1720827352
116,ilulissat,69.2167,-51.1,283.16,53,40,1.54,GL,1720827354
117,guiuan,11.0333,125.7247,301.31,76,100,1.18,PH,1720827355
118,prince george,53.9166,-122.753,298.49,37,0,1.03,CA,1720827157
119,hawaiian paradise park,19.5933,-154.9731,301.97,70,75,3.6,US,1720827357
120,bikenibeu village,1.3673,173.1241,301.9,73,89,6.19,KI,1720827358
121,el triunfo,-1.9333,-79.9667,303.17,64,49,3.66,EC,1720827360
122,patong,7.8961,98.2966,300.94,99,99,6.13,TH,1720827361
123,notodden,59.5594,9.2585,285.21,89,19,1.68,NO,1720827362
124,kwale,5.7063,6.4374,296.02,97,100,1.26,NG,1720827363
125,macon,39.8667,-88.9668,303.01,61,40,1.54,US,1720827365
126,kamina,-8.7386,24.9906,289.01,34,0,1.69,CD,1720827366
127,sur,22.5667,59.5289,304.16,63,76,5.06,OM,1720827367
128,naxos,37.1056,25.3764,300.54,72,0,1.79,GR,1720827368
129,rosetta,31.4044,30.4164,299.54,76,0,3.69,EG,1720827370
130,isafjordur,66.0755,-23.124,282.59,92,100,4.64,IS,1720827371
131,el jadid,33.2549,-8.506,293.82,87,0,5.16,MA,1720827372
132,vila franca do campo,37.7167,-25.4333,295.38,95,59,3.55,PT,1720827373
133,hami,42.8,93.45,298.24,38,70,1.46,CN,1720827375
134,minas de marcona,-15.2119,-75.1103,283.25,84,61,5.42,PE,1720827376
135,saudarkrokur,65.7461,-19.6394,287.62,67,100,11.05,IS,1720827377
136,geraldton,-28.7667,114.6,284.38,82,70,3.09,AU,1720827378
137,sao vicente,-23.9631,-46.3919,293.25,93,100,0.89,BR,1720827380
138,haiku-pauwela,20.9219,-156.3051,302.18,68,20,13.38,US,1720827382
139,varadero,23.1536,-81.2514,303.57,79,100,5.18,CU,1720827383
140,eydhafushi,5.1033,73.0708,301.95,76,100,6.76,MV,1720827385
141,susuman,62.7833,148.1667,298.22,35,98,1.3,RU,1720827386
142,hermanus,-34.4187,19.2345,282.48,79,38,3.74,ZA,1720827387
143,richards bay,-28.783,32.0377,289.44,55,0,1.22,ZA,1720827388
144,slave lake,55.2834,-114.769,292.14,55,20,5.14,CA,1720827246
145,boa vista,2.8197,-60.6733,298.14,88,75,2.06,BR,1720827392
146,gazojak,41.1875,61.4036,302.75,25,26,5.0,TM,1720827393
147,laminusa,5.5549,120.9136,299.47,87,99,6.83,PH,1720827396
148,greymouth,-42.4667,171.2,280.95,70,3,2.93,NZ,1720827398
149,wailua homesteads,22.0669,-159.378,300.85,76,100,7.2,US,1720827400
150,moose jaw,50.4001,-105.5344,300.3,53,40,6.69,CA,1720827402
151,qaqortoq,60.7167,-46.0333,278.86,94,100,2.4,GL,1720827403
152,duong dong,10.2167,103.9667,298.15,94,75,4.63,VN,1720827404
153,polyarnyy,69.1989,33.4478,283.18,91,100,8.12,RU,1720827405
154,usinsk,65.9939,57.5281,283.56,70,100,1.36,RU,1720827407
155,hammerfest,70.6634,23.6821,284.4,87,100,7.72,NO,1720827408
156,fortuna,40.5982,-124.1573,290.36,82,0,6.69,US,1720827409
157,kasimov,54.9411,41.3953,287.25,72,83,0.06,RU,1720827410
158,ghormach,35.7306,63.7826,298.16,38,17,0.73,AF,1720827412
159,vorkuta,67.5,64.0,281.35,79,100,1.73,RU,1720827337
160,cannonvale,-20.2833,148.7,294.03,52,0,1.67,AU,1720827415
161,alaghsas,17.0187,8.0168,303.1,43,91,7.55,NE,1720827416
162,selfoss,63.9331,-20.9971,284.84,97,100,8.01,IS,1720827418
163,vadso,70.0744,29.7487,284.64,76,38,2.06,NO,1720827422
164,gobabis,-22.45,18.9667,283.98,15,0,4.41,NA,1720827423
165,callao,-12.0667,-77.15,291.72,82,100,3.09,PE,1720827424
166,lebu,-37.6167,-73.65,281.06,80,0,2.51,CL,1720827425
167,san luis de la loma,17.2706,-100.8939,301.18,84,94,1.19,MX,1720827427
168,sumbe,-11.2061,13.8437,291.81,90,28,4.15,AO,1720827428
169,anadyr,64.75,177.4833,288.43,58,75,7.0,RU,1720827429
170,praia,14.9215,-23.5087,298.45,83,20,1.54,CV,1720827430
171,laayoune,27.1622,-13.2032,294.34,100,75,9.77,EH,1720827432
172,tabou,4.423,-7.3528,297.64,83,96,4.14,CI,1720827433
173,fisterra,42.9049,-9.2629,289.83,75,100,8.24,ES,1720827434
174,mili,6.0815,171.735,301.93,76,86,5.81,MH,1720827435
175,keflavik,64.0049,-22.5624,285.1,100,100,12.86,IS,1720827437
176,kenai,60.5544,-151.2583,288.72,73,100,2.06,US,1720827438
177,amga,60.8953,131.9608,299.48,51,6,2.0,RU,1720827439
178,amherst,41.3978,-82.2224,300.37,65,75,2.57,US,1720827440
179,sultanah,24.4926,39.5857,310.4,12,0,2.06,SA,1720827441
180,puerto aysen,-45.4,-72.7,275.51,98,30,0.4,CL,1720827443
181,camocim,-2.9022,-40.8411,299.25,80,81,6.41,BR,1720827444
182,mogadishu,2.0371,45.3438,297.96,87,74,7.52,SO,1720827445
183,wesselsbron,-27.8549,26.3658,280.64,18,0,2.29,ZA,1720827446
184,stanley,54.868,-1.6985,284.16,84,40,1.54,GB,1720827448
185,murzuq,25.9155,13.9184,303.01,17,0,4.4,LY,1720827449
186,aasiaat,68.7098,-52.8699,276.99,87,97,3.59,GL,1720827450
187,undurkhaan,47.3194,110.6556,294.44,68,86,2.37,MN,1720827451
188,port alfred,-33.5906,26.891,289.46,64,33,2.15,ZA,1720827453
189,ebon,4.582,168.6964,302.01,75,100,4.96,MH,1720827454
190,arafat,39.0344,44.6198,291.24,59,72,1.83,IR,1720827457
191,poltavka,54.3663,71.7632,292.26,82,74,3.67,RU,1720827458
192,kismayo,-0.3582,42.5454,297.98,84,65,7.94,SO,1720827459
193,northam,51.0333,-4.2167,287.38,88,99,2.81,GB,1720827460
194,wailea,19.8858,-155.123,301.81,73,75,3.6,US,1720827462
195,igarka,67.4667,86.5833,290.39,82,100,1.25,RU,1720827463
196,marsh harbour,26.5412,-77.0636,301.85,77,100,3.52,BS,1720827466
197,aykhal,66.0,111.5,297.01,53,35,5.3,RU,1720827467
198,hadibu,12.65,54.0333,299.57,84,95,12.26,YE,1720827468
199,wuhai,39.6647,106.8122,303.17,28,37,1.47,CN,1720827469
200,curvelo,-18.7564,-44.4308,295.57,47,0,4.13,BR,1720827471
201,porto seguro,-16.4497,-39.0647,295.44,88,0,0.51,BR,1720827472
202,hjorring,57.4642,9.9823,288.44,83,96,5.81,DK,1720827473
203,flying fish cove,-10.4217,105.6791,297.97,78,20,5.14,CX,1720827474
204,sao tome,0.3365,6.7273,296.81,78,81,4.26,ST,1720827475
205,yokadouma,3.5167,15.05,294.34,98,100,0.17,CM,1720827477
206,agat village,13.3886,144.6585,302.79,80,20,5.66,GU,1720827478
207,coquimbo,-29.9533,-71.3436,283.0,71,0,2.06,CL,1720827479
208,bridgewater,44.3835,-64.5155,298.77,84,46,6.17,CA,1720827482
209,vernon,50.2581,-119.2691,308.31,21,5,0.89,CA,1720827483
210,kerikeri,-35.2268,173.9474,286.71,56,88,2.99,NZ,1720827484
211,saipan,15.1355,145.701,301.54,78,0,5.14,MP,1720827486
212,arkhangel'sk,64.5401,40.5433,289.21,100,40,4.0,RU,1720827487
213,nar'yan-mar,67.6713,53.087,283.05,76,97,2.91,RU,1720827488
214,makubetsu,45.3714,141.8211,288.75,82,86,4.65,JP,1720827489
215,lushun,38.8,121.2667,297.27,79,66,4.09,CN,1720827491
216,colonia,50.9333,6.95,287.49,87,75,3.09,DE,1720827492
217,san patricio,28.017,-97.5169,305.12,62,91,5.22,US,1720827493
218,sandnessjoen,66.0217,12.6316,285.44,87,82,1.93,NO,1720827494
219,malvan,16.0667,73.4667,300.15,87,100,7.96,IN,1720827496
220,kourou,5.1552,-52.6478,298.18,85,59,2.07,GF,1720827497
221,midvagur,62.0511,-7.1939,283.61,100,100,3.09,FO,1720827498
222,hithadhoo,-0.6,73.0833,301.89,71,65,4.58,MV,1720827499
223,mejit,10.2753,170.8646,301.04,81,64,10.33,MH,1720827501
224,zliten,32.4674,14.5687,299.5,63,0,3.44,LY,1720827502
225,turpan,42.9333,89.1667,303.3,35,55,0.97,CN,1720827503
226,happy valley-goose bay,53.3168,-60.3315,302.32,24,75,4.63,CA,1720827504
227,dudinka,69.4058,86.1778,290.88,82,100,3.62,RU,1720827505
228,basco,20.4487,121.9702,303.3,74,71,6.2,PH,1720827508
229,olonkinbyen,70.9221,-8.7187,277.64,92,100,5.12,SJ,1720827509
230,khandyga,62.6667,135.6,299.18,46,19,1.91,RU,1720827511
231,dongdu,35.85,117.7,298.55,75,38,2.14,CN,1720827512
232,betare oya,5.6,14.0833,292.85,96,100,0.48,CM,1720827513
233,kontagora,10.3999,5.4695,296.78,85,26,2.02,NG,1720827514
234,timbuktu,16.7735,-3.0074,308.29,34,5,5.21,ML,1720827516
235,erenhot,43.6475,111.9767,297.78,45,93,3.43,CN,1720827517
236,queenstown,-31.8976,26.8753,280.71,54,9,1.66,ZA,1720827518
237,palapag,12.5458,125.1147,300.14,88,100,1.53,PH,1720827519
238,villa regina,-39.1,-67.0667,281.47,22,0,0.89,AR,1720827521
239,ash shatrah,31.4117,46.1742,312.11,15,5,11.39,IQ,1720827522
240,kisangani,0.5167,25.2,295.02,96,46,0.53,CD,1720827523
241,yendi,9.4427,-0.0099,297.34,89,94,2.85,GH,1720827524
242,ribeira brava,32.65,-17.0667,296.88,84,1,1.84,PT,1720827526
243,labasa,-16.4167,179.3833,297.24,84,100,4.77,FJ,1720827527
244,brisas de zicatela,15.8369,-97.0419,297.44,94,75,4.12,MX,1720827528
245,kobarid,46.2481,13.5772,295.49,96,75,1.47,SI,1720827529
246,ancud,-41.8697,-73.8203,279.07,89,37,1.87,CL,1720827531
247,puerto baquerizo moreno,-0.9,-89.6,294.56,82,95,5.32,EC,1720827532
248,pundong,-7.9522,110.3486,296.51,81,14,2.36,ID,1720827534
249,ugbokpo,7.6565,7.8664,296.16,95,97,3.08,NG,1720827536
250,santa marta,11.2408,-74.199,305.18,62,20,4.12,CO,1720827537
251,ust'-talovka,50.5493,81.85,291.21,85,8,1.39,KZ,1720827538
252,manokwari,-0.8667,134.0833,299.32,82,99,2.1,ID,1720827540
253,santiago de cao,-7.9589,-79.2392,290.22,94,100,6.69,PE,1720827541
254,kapuskasing,49.4169,-82.4331,301.2,57,100,4.12,CA,1720827542
255,sabang,5.8933,95.3214,301.63,76,97,9.56,ID,1720827545
256,nuestra senora del rosario de caa cati,-27.7507,-57.6207,280.01,76,6,3.29,AR,1720827546
257,namtsy,62.7161,129.6658,299.05,46,23,2.02,RU,1720827547
258,porto uniao,-26.2381,-51.0783,284.27,100,100,1.3,BR,1720827548
259,puerto armuelles,8.2833,-82.8667,302.09,82,72,2.24,PA,1720827550
260,ambalavao,-21.8333,46.9333,283.36,91,0,1.79,MG,1720827551
261,port augusta,-32.5,137.7667,285.2,78,1,1.13,AU,1720827552
262,horta,38.5333,-28.6333,295.94,92,81,3.13,PT,1720827553
263,fuglafjordur,62.244,-6.814,283.41,95,22,2.45,FO,1720827555
264,basavakalyan,17.8667,76.95,295.99,94,100,6.32,IN,1720827556
265,ulaangom,49.9811,92.0667,292.39,40,7,0.7,MN,1720827557
266,amarante do maranhao,-5.5667,-46.7422,298.4,38,99,1.32,BR,1720827558
267,benguela,-12.5763,13.4055,291.26,88,18,1.55,AO,1720827560
268,qarazhal,48.0078,70.7903,294.63,51,100,3.82,KZ,1720827561
269,sumbawanga,-7.9667,31.6167,285.44,39,7,1.35,TZ,1720827562
270,petropavlovsk-kamchatsky,53.0452,158.6483,290.48,59,20,2.0,RU,1720827563
271,tshikapa,-6.4167,20.8,294.49,29,0,0.89,CD,1720827565
272,kirensk,57.7853,108.1119,293.31,94,98,1.84,RU,1720827566
273,ballina,-28.8667,153.5667,290.81,59,21,5.02,AU,1720827567
274,yaren,-0.5472,166.916,301.89,75,100,4.13,NR,1720827568
275,abingdon,51.6711,-1.2828,286.6,81,100,1.64,GB,1720827570
276,boundiali,9.5217,-6.4869,295.33,96,100,0.85,CI,1720827571
277,sitka,57.0531,-135.33,287.09,88,100,4.63,US,1720827572
278,askoy,60.4092,5.226,288.31,100,20,0.51,NO,1720827573
279,tomatlan,19.9333,-105.25,300.05,85,100,0.91,MX,1720827574
280,aljezur,37.3191,-8.8033,289.04,91,3,5.63,PT,1720827576
281,nemuro,43.3236,145.575,287.24,97,63,2.73,JP,1720827577
282,kingston,17.997,-76.7936,303.68,74,20,6.17,JM,1720827578
283,seneca falls,42.9106,-76.7966,299.14,89,19,2.31,US,1720827579
284,pohrebyshche,49.4864,29.2636,296.48,52,9,2.58,UA,1720827581
285,touros,-5.1989,-35.4608,297.17,84,44,7.1,BR,1720827582
286,qamdo,31.1667,97.2333,284.79,65,98,0.97,CN,1720827583
287,kashgar,39.4547,75.9797,295.71,40,20,2.0,CN,1720827584
288,bodden town,19.2833,-81.25,304.15,79,20,5.66,KY,1720827586
289,mildura,-34.2,142.15,281.52,93,4,3.26,AU,1720827587
290,noumea,-22.2763,166.4572,298.15,99,31,1.52,NC,1720827425
291,nantucket,41.2835,-70.0995,299.18,94,100,5.66,US,1720827589
292,shimoda,34.6667,138.95,299.35,81,100,2.54,JP,1720827590
293,mohgaon,21.65,78.7167,298.2,90,100,3.0,IN,1720827592
294,remire-montjoly,4.9167,-52.2667,298.17,100,0,0.0,GF,1720827593
295,neryungri,56.6709,124.6491,293.02,65,100,4.19,RU,1720827594
296,constantia,44.1833,28.65,298.54,52,0,3.7,RO,1720827595
297,gejiu,23.306,103.1635,290.17,95,100,1.07,CN,1720827597
298,la passe,45.5549,-0.8967,289.25,67,49,3.48,FR,1720827598
299,forster,-32.1667,152.5167,287.8,77,93,6.91,AU,1720827599
300,labrador city,52.9463,-66.9114,298.1,22,75,6.17,CA,1720827600
301,nova sintra,14.8667,-24.7167,297.66,81,50,3.05,CV,1720827602
302,shiyan,32.6475,110.7781,299.71,86,96,0.6,CN,1720827603
303,vilyuchinsk,52.9306,158.4028,291.3,85,87,2.07,RU,1720827604
304,porto novo,6.4965,2.6036,299.05,89,96,3.3,BJ,1720827606
305,coronado,32.6859,-117.1831,302.33,71,75,4.63,US,1720827607
306,dalbandin,28.8947,64.4101,302.49,21,1,5.84,PK,1720827608
307,cusset,46.13,3.4596,288.34,91,13,1.01,FR,1720827609
308,atherton,53.5237,-2.4935,287.27,95,99,1.39,GB,1720827611
309,palikir - national government center,6.9248,158.1611,300.62,94,100,1.54,FM,1720827612
310,timmins,48.4669,-81.3331,301.05,34,20,2.57,CA,1720827616
311,tura,25.5198,90.2201,297.44,99,100,2.5,IN,1720827618
312,erndtebruck,50.9833,8.2667,284.68,88,97,3.41,DE,1720827619
313,balabac,7.9868,117.0645,299.1,87,100,8.56,PH,1720827620
314,ginir,7.1333,40.7,289.77,72,65,5.69,ET,1720827621
315,beni saf,35.301,-1.3823,302.31,50,10,2.34,DZ,1720827623
316,reggane,26.7158,0.1714,312.0,8,38,6.18,DZ,1720827624
317,avarua,-21.2078,-159.775,299.18,65,20,7.2,CK,1720827625
318,gulf shores,30.246,-87.7008,305.14,66,6,2.68,US,1720827626
319,dabrowa bialostocka,53.6536,23.3479,293.44,87,89,4.58,PL,1720827627
320,sanibel,26.449,-82.0223,300.93,85,100,4.02,US,1720827629
321,guerrero negro,27.9769,-114.0611,296.18,67,4,7.26,MX,1720827630
322,itoman,26.1247,127.6694,305.42,79,40,5.14,JP,1720827633
323,mahibadhoo,3.7833,72.9667,301.99,76,100,5.58,MV,1720827634
324,pati,-6.7559,111.038,296.02,82,31,0.78,ID,1720827635
325,chonchi,-42.6128,-73.8092,278.71,88,28,0.72,CL,1720827636
326,lompoc,34.6391,-120.4579,298.06,70,0,7.2,US,1720827638
327,mana,5.6592,-53.7767,299.37,80,66,3.27,GF,1720827639
328,qarah bagh,34.9402,61.7759,295.04,52,4,4.39,AF,1720827640
329,princeton,25.5384,-80.4089,303.15,78,0,0.0,US,1720827641
330,carnarvon,-24.8667,113.6333,291.86,43,100,4.07,AU,1720827643
331,uberlandia,-18.9186,-48.2772,297.71,35,0,2.57,BR,1720827644
332,severo-yeniseyskiy,60.3725,93.0408,288.23,72,79,1.34,RU,1720827645
333,vel'sk,61.0701,42.0983,287.78,63,98,3.79,RU,1720827646
334,lokomotivnyy,53.0118,60.5684,290.2,95,83,7.13,RU,1720827648
335,dampit,-8.2116,112.7493,293.19,85,44,1.5,ID,1720827649
336,kunda,25.7167,81.5167,304.48,66,82,1.28,IN,1720827650
337,dwarka,22.2394,68.9678,301.83,84,99,10.0,IN,1720827653
338,la jagua de ibirico,9.5623,-73.3341,300.95,77,71,3.22,CO,1720827654
339,broken hill,-31.95,141.4333,283.44,75,0,4.43,AU,1720827655
340,masterton,-40.9597,175.6575,286.97,83,68,3.69,NZ,1720827656
341,prince albert,53.2001,-105.7677,298.12,44,0,5.66,CA,1720827658
342,puerto ayacucho,5.6639,-67.6236,297.25,93,99,1.49,VE,1720827659
343,cill airne,52.05,-9.5167,285.23,91,100,1.15,IE,1720827660
344,ust-nera,64.5667,143.2,300.69,29,80,2.22,RU,1720827661
345,zaysan,47.4667,84.8667,294.41,38,94,2.23,KZ,1720827663
346,buena vista,43.4203,-83.8986,301.25,67,75,1.54,US,1720827664
347,kill devil hills,36.0307,-75.676,300.36,86,100,3.09,US,1720827665
348,markaz-e hukumat-e darweshan,31.1323,64.1934,301.15,20,0,2.69,AF,1720827667
349,portland,45.5234,-122.6762,305.14,41,0,5.14,US,1720827426
350,'ain el bell,34.3438,3.2247,304.03,16,69,4.04,DZ,1720827669
351,ippy,6.2679,21.2247,294.19,98,100,1.4,CF,1720827670
352,ramapuram,13.1167,79.2,298.03,77,100,8.99,IN,1720827671
353,cabo san lucas,22.8909,-109.9124,303.76,63,0,6.69,MX,1720827645
354,del rio,29.3627,-100.8968,308.21,45,0,6.69,US,1720827674
355,defiance,41.3334,-84.45,302.14,58,20,2.06,US,1720827675
356,oranjemund,-28.55,16.4333,285.74,82,1,2.52,NA,1720827678
357,ramotswa,-24.8716,25.8699,285.27,16,0,1.22,BW,1720827679
358,tazovsky,67.4667,78.7,285.64,95,26,4.41,RU,1720827680
359,kasese,0.1833,30.0833,294.07,80,57,1.23,UG,1720827682
360,saint-georges,12.0564,-61.7485,297.97,94,75,0.0,GD,1720827683
361,kalix,65.853,23.1565,287.61,96,66,3.99,SE,1720827684
362,necochea,-38.5473,-58.7368,278.49,71,1,2.25,AR,1720827686
363,gangneung,37.7556,128.8961,296.46,84,30,1.86,KR,1720827687
364,seguela,7.9611,-6.6731,294.49,99,94,2.23,CI,1720827689
365,faya-largeau,17.9257,19.1043,305.76,33,78,4.56,TD,1720827690
366,pontes e lacerda,-15.2261,-59.3353,291.21,55,41,2.6,BR,1720827691
367,tarawa,1.419,172.984,301.96,74,90,6.04,KI,1720827693
368,sarmiento,-45.5882,-69.07,275.32,72,1,0.27,AR,1720827694
369,wakkanai,45.4094,141.6739,288.21,84,89,4.86,JP,1720827695
370,san rafael,-34.6177,-68.3301,279.08,40,0,5.22,AR,1720827696
371,andovoranto,-18.95,49.1,293.94,88,89,2.14,MG,1720827697
372,garachico,28.7781,-17.7646,295.64,83,0,7.2,ES,1720827699
373,chabahar,25.2919,60.643,302.58,87,79,2.6,IR,1720827700
374,qaisumah,28.3112,46.1273,308.13,10,0,2.57,SA,1720827703
375,novodvinsk,64.4165,40.8122,289.01,75,100,4.32,RU,1720827704
376,mantua,45.1667,10.7833,297.64,87,3,2.57,IT,1720827705
377,bloomfield,40.8068,-74.1854,300.29,84,100,3.6,US,1720827706
378,badger,64.8,-147.5333,298.7,33,40,5.66,US,1720827708
379,indramayu,-6.3264,108.32,296.85,76,9,2.94,ID,1720827710
380,villa gesell,-37.2639,-56.973,278.74,71,2,2.46,AR,1720827712
381,yuzhno-kurilsk,44.0306,145.8556,290.73,84,83,1.95,RU,1720827713
382,dazhong,33.1997,120.4578,297.48,96,100,2.33,CN,1720827714
383,gilgit,35.9221,74.3087,295.44,52,100,1.11,PK,1720827716
384,rongelap,11.1635,166.8941,301.47,77,69,8.05,MH,1720827718
385,eaglehawk,-36.7333,144.25,284.02,65,70,3.24,AU,1720827720
386,arendal,58.4615,8.7725,285.04,87,81,3.47,NO,1720827721
387,sokur,55.2093,83.319,286.35,80,7,1.68,RU,1720827722
388,bowen,-20.0167,148.2333,296.3,52,0,3.08,AU,1720827724
389,puerto madryn,-42.7692,-65.0385,282.23,49,0,4.3,AR,1720827725
390,sao joao da barra,-21.6403,-41.0511,295.2,90,7,2.92,BR,1720827727
391,cove,7.221,2.3402,295.88,95,98,1.94,BJ,1720827728
392,smithers,54.7804,-127.1743,293.33,49,75,3.09,CA,1720827729
393,ponta delgada,37.7333,-25.6667,295.55,94,75,4.63,PT,1720827731
394,boende,-0.2167,20.8667,295.29,96,69,1.62,CD,1720827732
395,al wajh,26.2455,36.4525,305.12,74,0,4.63,SA,1720827733
396,bengkulu,-3.8004,102.2655,297.33,90,97,2.07,ID,1720827735
397,bubaque,11.2833,-15.8333,300.5,80,100,6.12,GW,1720827736
398,nogliki,51.8333,143.1667,288.31,84,98,2.55,RU,1720827737
399,lautoka,-17.6167,177.4667,300.07,57,40,4.12,FJ,1720827738
400,halifax,44.6453,-63.5724,296.12,87,33,1.34,CA,1720827739
401,st. john's,47.5649,-52.7093,290.68,92,100,2.06,CA,1720827692
402,ibshaway,29.358,30.6814,302.2,53,6,4.82,EG,1720827742
403,jinzhou,41.1078,121.1417,298.46,72,97,2.19,CN,1720827743
404,carutapera,-1.195,-46.02,297.75,87,37,2.72,BR,1720827744
405,matveyev kurgan,47.5645,38.8695,293.01,38,0,3.89,RU,1720827746
406,bac lieu,9.285,105.7244,297.82,94,100,6.17,VN,1720827747
407,gisborne,-38.6533,178.0042,285.19,80,65,5.86,NZ,1720827748
408,roseburg north,43.2645,-123.3033,305.68,20,0,5.66,US,1720827750
409,tome acu,-2.4189,-48.1522,298.14,59,95,1.64,BR,1720827751
410,ciudad lazaro cardenas,17.9583,-102.2,301.73,77,95,1.98,MX,1720827752
411,farnham,51.2143,-0.7959,287.07,84,20,2.06,GB,1720827753
412,belmonte,-15.8631,-38.8828,296.32,70,28,2.9,BR,1720827755
413,nuku'alofa,-21.1333,-175.2,298.34,69,20,4.63,TO,1720827756
414,yamada,39.4667,141.95,297.02,66,3,2.33,JP,1720827757
415,bodo,67.28,14.405,284.79,91,100,1.03,NO,1720827758
416,itaituba,-4.2761,-55.9836,300.52,60,47,1.37,BR,1720827760
417,soio,-6.1349,12.3689,293.62,88,83,2.29,AO,1720827761
418,mugia,43.1041,-9.2179,289.91,77,100,8.27,ES,1720827762
419,sovetskiy,61.3614,63.5842,284.34,85,100,3.27,RU,1720827764
420,tsiombe,-25.3,45.4833,289.79,73,0,0.66,MG,1720827765
421,aginskoye,51.1,114.53,296.27,67,8,2.12,RU,1720827767
422,cockburn town,21.4612,-71.1419,301.85,85,68,9.91,TC,1720827768
423,nagqu,31.5,92.0,280.37,89,100,1.35,CN,1720827770
424,dongsheng,39.8161,109.9776,297.49,40,21,1.83,CN,1720827772
425,tralee,52.2704,-9.7026,285.78,88,98,1.59,IE,1720827773
426,tommot,58.9564,126.2925,296.22,59,38,2.93,RU,1720827776
427,fort mcmurray,56.7268,-111.381,289.92,55,100,5.14,CA,1720827777
428,mahina,-17.5065,-149.489,301.02,69,75,1.03,PF,1720827778
429,ostersund,63.1792,14.6357,285.71,78,3,2.57,SE,1720827779
430,ash shamiyah,31.9636,44.599,312.2,15,1,6.17,IQ,1720827781
431,barakani,-12.1356,44.4317,297.97,65,83,4.14,KM,1720827782
432,aksuat,48.7167,83.7,294.64,50,98,1.22,KZ,1720827783
433,gizo,-8.103,156.8419,301.29,76,64,0.54,SB,1720827784
434,johvi,59.3592,27.4211,288.57,93,10,3.5,EE,1720827786
435,el calafate,-50.3408,-72.2768,276.26,71,100,2.55,AR,1720827787
436,sittwe,20.15,92.9,299.72,86,89,1.65,MM,1720827788
437,cole harbour,44.6724,-63.4751,295.83,87,23,1.34,CA,1720827789
438,hotan,37.0997,79.9269,297.07,31,51,1.8,CN,1720827791
439,gadzhiyevo,69.2551,33.3362,283.41,89,100,8.29,RU,1720827792
440,alofi,-19.0595,-169.9187,298.09,73,20,3.6,NU,1720827793
441,libreville,0.3925,9.4537,296.92,81,99,4.41,GA,1720827795
442,glendora,34.1361,-117.8653,307.8,55,0,5.66,US,1720827796
443,dunedin,-45.8742,170.5036,280.82,72,26,4.47,NZ,1720827669
444,navapolatsk,55.5363,28.6424,290.95,91,59,1.58,BY,1720827799
445,ventspils,57.3894,21.5606,289.11,100,100,1.54,LV,1720827800
446,tan-tan,28.438,-11.1032,293.16,89,31,6.07,MA,1720827801
447,katsuren-haebaru,26.3369,127.8719,305.42,75,40,4.63,JP,1720827802
448,koulikoro,14.0,-7.75,298.78,73,87,4.93,ML,1720827804
449,guasdualito,7.2424,-70.7324,300.13,94,40,1.03,VE,1720827805
450,argos orestiko,40.4667,21.2667,294.76,50,52,0.77,GR,1720827806
451,jesup,31.6074,-81.8854,304.11,62,100,1.54,US,1720827605
452,coeur d'alene,47.6777,-116.7805,307.29,22,0,4.12,US,1720827809
453,chilliwack,49.1747,-121.9443,302.34,53,0,3.6,CA,1720827810
454,aral,40.5156,81.2636,297.68,42,9,0.91,CN,1720827811
455,mabaruma,8.2,-59.7833,298.08,85,100,0.84,GY,1720827812
456,madang,-5.2246,145.7966,302.07,70,79,0.38,PG,1720827814
457,yashikira,9.7667,3.4,295.18,95,46,3.04,NG,1720827815
458,umba,66.6871,34.3429,285.2,98,100,3.99,RU,1720827817
459,pervomayskoye,43.919,46.7102,295.24,53,32,3.06,RU,1720827818
460,sosnovo-ozerskoye,52.5249,111.5418,293.6,70,70,3.06,RU,1720827819
461,nsanje,-16.92,35.262,291.63,78,4,1.38,MW,1720827821
462,dunda,-8.1167,34.25,287.22,78,41,1.63,TZ,1720827822
463,medicine hat,50.0501,-110.6683,301.6,33,0,4.12,CA,1720827823
464,erbil,36.1926,44.0106,300.05,22,0,0.0,IQ,1720827824
465,aripuana,-9.1667,-60.6333,301.69,45,100,2.32,BR,1720827826
466,saint-philippe,-21.3585,55.7679,291.92,73,40,5.87,RE,1720827827
467,santa vitoria do palmar,-33.5189,-53.3681,278.92,84,4,1.66,BR,1720827828
468,arteche,12.2645,125.4048,301.02,83,97,1.53,PH,1720827829
469,gereida,11.2811,25.1414,302.82,49,70,3.37,SD,1720827831
470,holualoa,19.6228,-155.9522,299.06,81,40,4.63,US,1720827832
471,copiapo,-27.3667,-70.3333,282.98,74,0,0.87,CL,1720827833
472,santo domingo de la calzada,42.4285,-2.9555,284.7,90,100,0.76,ES,1720827834
473,calvinia,-31.4707,19.776,278.54,94,79,0.79,ZA,1720827836
474,loen,7.7601,168.2307,301.2,80,100,6.96,MH,1720827837
475,pasuquin,18.3328,120.6177,301.12,89,20,2.06,PH,1720827838
476,berezovyy,51.6667,135.7,288.64,74,86,0.59,RU,1720827840
477,barcelona,41.3888,2.159,298.54,70,40,2.57,ES,1720827841
478,maunabo,18.0072,-65.8993,303.14,87,49,6.02,PR,1720827843
479,margate,51.3813,1.3862,286.41,79,31,6.06,GB,1720827844
480,korla,41.7597,86.1469,297.62,36,100,2.16,CN,1720827845
481,east london,-33.0153,27.9116,290.72,61,6,2.9,ZA,1720827846
482,veraval,20.9,70.3667,301.48,83,100,9.31,IN,1720827848
483,tashla,51.7716,52.7427,288.86,68,90,11.07,RU,1720827849
484,barra de santo antonio,-9.4047,-35.5072,298.75,74,46,6.87,BR,1720827850
485,zhalantun,48.0,122.7167,300.24,31,6,3.03,CN,1720827852
486,palamos,41.8484,3.1291,295.99,40,65,4.92,ES,1720827853
487,broome,42.2506,-75.833,299.37,80,0,2.57,US,1720827854
488,laguna,38.421,-121.4238,317.67,20,0,3.6,US,1720827856
489,huarmey,-10.0681,-78.1522,290.64,81,50,5.53,PE,1720827857
490,song cau,13.45,109.2167,299.59,76,100,3.1,VN,1720827860
491,ad dilam,23.9915,47.1627,310.38,13,86,4.13,SA,1720827862
492,merizo village,13.2658,144.6691,303.0,75,74,5.46,GU,1720827864
493,cambrai,50.1667,3.4167,284.16,93,89,1.99,FR,1720827865
494,torghay,49.6339,63.4981,292.47,70,68,3.63,KZ,1720827866
495,mpika,-11.8343,31.4529,284.68,49,5,1.82,ZM,1720827867
496,kavieng,-2.5744,150.7967,301.97,72,52,3.89,PG,1720827869
497,galesong,-5.3166,119.3661,297.16,70,98,3.49,ID,1720827870
498,pandan,14.0453,124.1694,301.26,84,100,2.31,PH,1720827871
499,pacific grove,36.6177,-121.9166,298.28,81,0,3.6,US,1720827665
500,khanty-mansiysk,61.0042,69.0019,289.21,82,0,3.0,RU,1720827874
501,katsuura,35.1333,140.3,298.27,84,96,1.07,JP,1720827875
502,christchurch,-43.5333,172.6333,281.99,80,96,3.14,NZ,1720827474
503,fort saskatchewan,53.7168,-113.2187,298.58,48,9,4.06,CA,1720827878
504,port saint john's,-31.6229,29.5448,290.29,75,2,2.2,ZA,1720827879
505,bamboo flat,11.7,92.7167,300.2,83,97,8.11,IN,1720827880
506,myanaung,18.2833,95.3167,299.35,86,100,2.24,MM,1720827882
507,port hedland,-20.3167,118.5667,291.18,36,4,2.57,AU,1720827883
508,nerekhta,57.4588,40.5747,290.09,77,53,3.36,RU,1720827884
509,bantay,17.5847,120.3892,303.13,84,95,3.25,PH,1720827885
510,copala,16.65,-98.9833,301.21,77,44,3.03,MX,1720827886
511,padang,-0.9492,100.3543,298.18,83,100,1.63,ID,1720827888
512,road town,18.4167,-64.6167,303.17,79,40,5.14,VG,1720827889
513,luanda,-8.8368,13.2343,295.15,83,40,2.57,AO,1720827890
514,san antonio de pale,-1.4014,5.6325,296.13,74,89,4.83,GQ,1720827891
515,north battleford,52.7834,-108.2847,298.2,36,0,7.2,CA,1720827893
516,mangrol,21.1167,70.1167,301.54,83,98,9.96,IN,1720827894
517,banda aceh,5.5577,95.3222,300.03,73,100,6.1,ID,1720827896
518,seven pagodas,12.6264,80.1722,299.32,69,100,7.92,IN,1720827897
519,axim,4.8699,-2.2405,297.4,86,30,4.48,GH,1720827898
520,hoima,1.4356,31.3436,290.47,92,37,0.83,UG,1720827900
521,mount pearl,47.5166,-52.7813,290.22,92,100,2.06,CA,1720827901
522,wellington,-41.2866,174.7756,283.96,74,40,4.12,NZ,1720827582
523,isla del bosque,22.7333,-105.85,300.98,78,100,2.39,MX,1720827903
524,chadron,42.8294,-102.9999,311.01,19,0,5.14,US,1720827905
525,boden,65.8252,21.6886,288.15,97,85,2.51,SE,1720827906
526,jupiter,26.9342,-80.0942,303.74,74,0,2.57,US,1720827755
527,chaumont,48.1167,5.1333,287.24,96,22,1.93,FR,1720827908
528,kyshtovka,56.555,76.6271,291.08,93,42,1.33,RU,1720827911
529,pangody,65.85,74.4859,287.55,74,7,5.94,RU,1720827912
530,sinabang,2.4803,96.3801,299.51,82,99,1.58,ID,1720827913
531,gremyachinsk,58.5603,57.851,283.61,96,97,2.79,RU,1720827915
532,mombetsu,44.3525,143.3525,291.8,75,40,1.81,JP,1720827916
533,dondo,-19.6094,34.7431,291.88,96,2,1.96,MZ,1720827918
534,belyy yar,53.6039,91.3903,292.09,82,0,1.0,RU,1720827920
535,athol,42.5959,-72.2268,301.03,77,65,4.63,US,1720827921
536,kurumkan,54.3,110.3,293.96,86,76,1.66,RU,1720827922
537,mermoz boabab,14.7065,-17.4758,300.46,83,75,3.09,SN,1720827924
538,kamaishi,39.2667,141.8833,296.87,68,14,2.39,JP,1720827925
539,robore,-18.3333,-59.75,282.81,60,93,1.62,BO,1720827926
540,kununurra,-15.7667,128.7333,294.14,64,24,1.54,AU,1720827927
541,port blair,11.6667,92.75,301.17,83,75,5.14,IN,1720827929
542,saynshand,44.8824,110.1163,298.8,43,77,4.67,MN,1720827930
543,berdigestyakh,62.0989,126.6992,297.26,57,6,3.5,RU,1720827931
544,chicoana,-25.1009,-65.5331,278.18,55,26,1.88,AR,1720827932
545,macas,-2.3167,-78.1167,292.47,99,100,0.02,EC,1720827754
546,bryne,58.7354,5.6477,287.17,93,0,3.09,NO,1720827935
547,hasaki,35.7333,140.8333,300.53,82,100,3.89,JP,1720827936
548,al masallamiyya,14.5748,33.3373,297.75,76,98,3.4,SD,1720827937
549,arawa,-6.2132,155.5367,303.45,67,70,1.13,PG,1720827940
550,le francois,14.6156,-60.9031,300.14,89,75,0.51,MQ,1720827941
551,mossendjo,-2.9506,12.7261,290.07,91,76,1.1,CG,1720827942
552,markovo,57.3206,107.0881,291.23,95,100,2.22,RU,1720827944
553,ulladulla,-35.35,150.4667,286.25,61,37,4.88,AU,1720827945
554,pico truncado,-46.7949,-67.9573,275.28,73,4,4.82,AR,1720827946
555,crane,31.3974,-102.3501,307.97,20,1,7.5,US,1720827947
556,souillac,-20.5167,57.5167,296.36,56,75,6.17,MU,1720827949
557,roma,43.2128,-75.4557,299.66,80,48,0.4,US,1720827858
558,peniche,39.3558,-9.3811,289.98,91,9,7.13,PT,1720827951
559,karratha,-20.7377,116.8463,293.63,44,5,5.42,AU,1720827952
560,salalah,17.0151,54.0924,299.2,100,100,2.06,OM,1720827954
561,berastagi,3.1929,98.5092,289.3,91,100,2.0,ID,1720827955
562,goure,13.9835,10.2704,301.83,57,81,8.71,NE,1720827956
563,jala,21.0833,-104.4333,293.86,95,100,1.79,MX,1720827957
564,lorengau,-2.0226,147.2712,301.02,78,66,1.88,PG,1720827958
