City_ID,City,Lat,Lng,Max Temp,Humidity,Cloudiness,Wind Speed,Country,Date
0,bethel,41.3712,-73.414,23.05,85,0,0.0,US,1721617512
1,punta arenas,-53.15,-70.9167,5.06,70,0,16.98,CL,1721617359
2,port elizabeth,-33.918,25.5701,9.06,90,0,2.06,ZA,1721617514
3,ilulissat,69.2167,-51.1,6.01,87,71,1.54,GL,1721617515
4,bredasdorp,-34.5322,20.0403,5.8,89,3,1.82,ZA,1721617516
5,kongwa,-6.2,36.4167,14.09,94,38,1.59,TZ,1721617518
6,fale old settlement,-9.3852,-171.2468,28.36,75,9,9.29,TK,1721617519
7,muroto-misakicho,33.2833,134.15,28.19,85,4,5.26,JP,1721617520
8,yambio,4.5721,28.3955,18.21,98,98,1.59,SS,1721617523
9,talata mafara,12.5732,6.0597,24.62,84,99,4.7,NG,1721617524
10,luwuk,-0.9516,122.7875,25.13,82,95,3.35,ID,1721617525
11,puerto ayora,-0.7393,-90.3518,21.42,89,70,3.13,EC,1721617527
12,los santos,7.9333,-80.4167,28.0,84,100,2.02,PA,1721617528
13,adamstown,-25.066,-130.1015,19.02,59,85,8.57,PN,1721617529
14,bandarbeyla,9.4942,50.8122,25.89,66,100,13.4,SO,1721617530
15,thompson,55.7435,-97.8558,18.09,72,100,4.12,CA,1721617531
16,santa cruz,-17.8,-63.1667,19.7,88,0,1.03,BO,1721617533
17,edinburgh of the seven seas,-37.0676,-12.3116,11.05,63,84,12.37,SH,1721617534
18,puerto baquerizo moreno,-0.9,-89.6,20.96,81,80,6.41,EC,1721617535
19,nuku'alofa,-21.1333,-175.2,27.19,74,20,4.63,TO,1721617536
20,papatowai,-46.5619,169.4708,8.51,75,81,6.42,NZ,1721617538
21,grande prairie,55.1667,-118.8027,30.1,30,40,8.23,CA,1721617539
22,waitangi,-43.9535,-176.5597,10.46,99,100,5.36,NZ,1721617540
23,port mathurin,-19.6833,63.4167,22.53,69,5,6.3,MU,1721617541
24,san juan de miraflores,-12.1629,-76.9635,17.15,80,78,2.73,PE,1721617542
25,mount isa,-20.7333,139.5,22.87,21,0,5.66,AU,1721617342
26,kill devil hills,36.0307,-75.676,25.55,91,40,2.06,US,1721617545
27,blackmans bay,-43.0167,147.3167,15.41,68,95,1.34,AU,1721617546
28,abepura,-2.6333,140.5833,28.45,79,40,3.6,ID,1721617547
29,tobruk,32.0836,23.9764,26.08,88,0,4.53,LY,1721617548
30,yeppoon,-23.1333,150.7333,23.47,43,0,3.7,AU,1721617550
31,qaqortoq,60.7167,-46.0333,5.52,93,100,0.21,GL,1721617551
32,junqueiro,-9.9253,-36.4758,18.38,83,3,0.7,BR,1721617552
33,lazaro cardenas,17.9583,-102.2,27.32,77,100,0.77,MX,1721617553
34,gargalianoi,37.0667,21.6333,24.64,79,0,3.03,GR,1721617555
35,kodiak,57.79,-152.4072,16.73,77,100,0.0,US,1721617556
36,pemangkat,1.1667,108.9667,29.95,67,99,4.5,ID,1721617557
37,atafu village,-8.5421,-172.5159,28.45,74,1,9.28,TK,1721617558
38,ugoofaaru,5.6667,73.0,28.7,74,100,3.97,MV,1721617559
39,olonkinbyen,70.9221,-8.7187,5.13,96,85,7.6,SJ,1721617561
40,lorengau,-2.0226,147.2712,27.51,86,100,6.27,PG,1721617562
41,guerrero negro,27.9769,-114.0611,21.21,86,98,6.18,MX,1721617564
42,ribeira grande,38.5167,-28.7,22.65,85,1,2.21,PT,1721617566
43,yemetsk,63.4721,41.7941,14.43,59,97,1.35,RU,1721617567
44,iqaluit,63.7506,-68.5145,12.85,62,40,9.77,CA,1721617568
45,uturoa,-16.7333,-151.4333,24.32,68,62,9.97,PF,1721617569
46,fort st. john,56.2499,-120.8529,28.94,32,75,4.63,CA,1721617571
47,whitehorse,60.7161,-135.0538,18.43,82,75,3.09,CA,1721617216
48,port alfred,-33.5906,26.891,11.28,75,0,3.4,ZA,1721617573
49,shenjiamen,29.9576,122.298,28.38,82,72,8.9,CN,1721617574
50,port-aux-francais,-49.35,70.2167,4.41,91,100,7.88,TF,1721617575
51,urucara,-2.5364,-57.76,24.13,71,10,0.91,BR,1721617577
52,badger,64.8,-147.5333,27.77,32,20,0.0,US,1721617578
53,simanggang,1.2472,111.4528,28.99,83,20,2.24,MY,1721617580
54,afaahiti,-17.75,-149.2833,24.93,69,100,10.48,PF,1721617581
55,invercargill,-46.4,168.35,8.34,88,100,2.24,NZ,1721617302
56,hawaiian paradise park,19.5933,-154.9731,27.07,74,100,5.66,US,1721617584
57,iskateley,67.6803,53.1512,11.71,52,100,2.56,RU,1721617585
58,kone,-21.0595,164.8658,25.7,44,0,3.86,NC,1721617586
59,gambela,8.25,34.5833,20.74,95,100,1.22,ET,1721617588
60,nagato,34.3833,131.2,31.78,71,3,4.96,JP,1721617589
61,nandyal,15.4833,78.4833,26.7,75,100,5.75,IN,1721617590
62,talnakh,69.4865,88.3972,10.03,50,12,7.08,RU,1721617591
63,stranraer,54.9023,-5.0273,13.28,97,100,3.82,GB,1721617592
64,grytviken,-54.2811,-36.5092,-1.38,83,57,4.83,GS,1721617594
65,vallenar,-28.5708,-70.7581,11.44,75,0,0.93,CL,1721617595
66,sitka,57.0531,-135.33,14.94,82,75,2.06,US,1721617596
67,anadyr,64.75,177.4833,17.28,77,75,9.0,RU,1721617597
68,yellowknife,62.456,-114.3525,25.23,46,40,2.57,CA,1721617599
69,hamilton,39.1834,-84.5333,24.12,72,40,2.06,US,1721617323
70,ulladulla,-35.35,150.4667,17.4,45,100,1.44,AU,1721617601
71,mabaruma,8.2,-59.7833,23.46,100,90,0.44,GY,1721617602
72,bilibino,68.0546,166.4372,13.96,76,100,1.38,RU,1721617603
73,ushuaia,-54.8,-68.3,1.24,76,70,7.94,AR,1721617605
74,lagunas,-5.2269,-75.6753,23.14,77,19,1.07,PE,1721617606
75,west island,-12.1568,96.8225,27.99,74,20,8.75,CC,1721617607
76,tshabong,-26.05,22.45,9.28,22,99,3.43,BW,1721617608
77,lihue,21.9789,-159.3672,27.77,68,40,5.66,US,1721617610
78,dzhambeyty,50.2536,52.595,23.58,60,3,4.61,KZ,1721617611
79,ust-nera,64.5667,143.2,20.37,62,100,1.52,RU,1721617612
80,kasane,-17.8167,25.15,14.09,35,15,0.95,BW,1721617613
81,arraial do cabo,-22.9661,-42.0278,20.23,78,0,2.68,BR,1721617614
82,nikolayevsk-on-amure,53.1406,140.73,14.14,99,100,1.94,RU,1721617616
83,sinabang,2.4803,96.3801,30.06,68,100,3.15,ID,1721617617
84,longyearbyen,78.2186,15.6401,7.91,93,100,1.54,SJ,1721617426
85,uvalde,29.3669,-99.767,26.18,71,0,6.17,US,1721617619
86,olinda,-8.0089,-34.8553,22.85,88,75,3.6,BR,1721617622
87,new norfolk,-42.7826,147.0587,16.07,72,100,2.62,AU,1721617623
88,aktau,43.65,51.2,23.32,70,19,1.75,KZ,1721617624
89,turkmenbasy,40.0222,52.9552,25.32,68,32,6.68,TM,1721617626
90,vila velha,-20.3297,-40.2925,21.08,93,100,1.54,BR,1721617627
91,malinyi,-8.9333,36.1333,17.35,84,80,0.37,TZ,1721617628
92,nar'yan-mar,67.6713,53.087,11.75,53,100,2.58,RU,1721617629
93,san luis de la loma,17.2706,-100.8939,26.12,86,100,1.45,MX,1721617631
94,sur,22.5667,59.5289,32.58,57,100,1.95,OM,1721617632
95,touros,-5.1989,-35.4608,22.21,90,65,5.46,BR,1721617633
96,utrik,11.2278,169.8474,27.74,81,74,7.55,MH,1721617634
97,puerto natales,-51.7236,-72.4875,6.66,74,100,9.66,CL,1721617635
98,glace bay,46.1969,-59.957,17.72,96,51,3.16,CA,1721617637
99,tiflet,33.8947,-6.3065,19.33,78,0,1.57,MA,1721617641
100,san antonio oeste,-40.7319,-64.9477,12.14,41,0,8.62,AR,1721617642
101,laguna,38.421,-121.4238,32.73,44,0,4.12,US,1721617643
102,kinablangan,7.6947,126.5503,27.84,70,100,1.52,PH,1721617644
103,totness,5.8833,-56.3167,25.64,88,1,2.78,SR,1721617646
104,miyako,39.6367,141.9525,32.55,45,0,2.34,JP,1721617647
105,lebu,-37.6167,-73.65,6.64,84,0,3.32,CL,1721617648
106,kerema,-7.9631,145.7785,26.08,82,100,3.78,PG,1721617649
107,le moule,16.3332,-61.3473,27.02,77,0,7.03,GP,1721617650
108,westport,41.1415,-73.3579,23.9,81,0,1.54,US,1721617490
109,vilyuchinsk,52.9306,158.4028,20.15,81,93,2.44,RU,1721617653
110,cabo san lucas,22.8909,-109.9124,30.1,58,0,5.14,MX,1721617229
111,tocopilla,-22.092,-70.1979,15.75,76,0,3.57,CL,1721617655
112,pisco,-13.7,-76.2167,14.03,82,54,2.57,PE,1721617656
113,daru,-9.0763,143.2092,24.97,84,100,7.89,PG,1721617658
114,ancud,-41.8697,-73.8203,7.55,91,3,0.4,CL,1721617659
115,yelizovo,53.1873,158.3805,20.08,60,20,7.0,RU,1721617660
116,les cayes,18.2,-73.75,26.81,88,4,1.04,HT,1721617661
117,osorio,-29.8867,-50.2697,14.19,88,100,1.58,BR,1721617663
118,port blair,11.6667,92.75,29.02,89,100,4.63,IN,1721617664
119,lakatoro,-16.0999,167.4164,27.66,74,16,5.28,VU,1721617665
120,kingston,17.997,-76.7936,29.53,79,20,8.23,JM,1721617499
121,ariquemes,-9.9133,-63.0408,22.63,45,27,0.88,BR,1721617667
122,crucecita,-28.95,-58.9833,16.62,93,57,3.54,AR,1721617669
123,ksar el boukhari,35.8889,2.7491,22.54,67,1,2.53,DZ,1721617670
124,tazovsky,67.4667,78.7,8.92,60,18,4.25,RU,1721617671
125,hailar,49.2,119.7,28.06,51,69,3.31,CN,1721617672
126,chernyshevskiy,63.0128,112.4714,25.04,53,18,2.83,RU,1721617674
127,kurchatov,51.6601,35.6521,17.2,67,100,1.35,RU,1721617675
128,sallisaw,35.4604,-94.7875,23.98,88,100,2.06,US,1721617676
129,east ballina,-28.8667,153.5833,16.88,56,0,2.85,AU,1721617677
130,ulsteinvik,62.3432,5.8487,14.06,93,100,0.89,NO,1721617680
131,thinadhoo,0.5333,72.9333,29.26,70,92,5.36,MV,1721617681
132,portland,45.5234,-122.6762,24.82,64,0,1.79,US,1721617223
133,truro,50.2653,-5.0544,16.6,95,75,6.69,GB,1721617683
134,mollendo,-17.0231,-72.0147,13.62,89,37,3.68,PE,1721617685
135,wynyard,-41.0,145.7167,13.99,92,99,2.24,AU,1721617686
136,kattivakkam,13.2167,80.3167,30.54,75,100,7.19,IN,1721617687
137,posto fiscal rolim de moura,-13.0833,-62.2667,21.68,47,4,1.28,BR,1721617689
138,san julian,21.0167,-102.1667,17.86,72,25,0.96,MX,1721617690
139,mjolby,58.326,15.1237,15.84,95,100,2.11,SE,1721617691
140,ulysses,37.5814,-101.3552,23.11,56,75,0.0,US,1721617692
141,oranjemund,-28.55,16.4333,10.84,89,7,2.34,NA,1721617694
142,jinchang,38.4953,102.1739,23.0,70,100,1.94,CN,1721617695
143,vorgashor,67.5833,63.95,9.27,60,100,1.74,RU,1721617696
144,yuzhno-kurilsk,44.0306,145.8556,23.81,73,37,7.24,RU,1721617697
145,greenville,35.6127,-77.3663,26.09,91,40,4.63,US,1721617699
146,pangody,65.85,74.4859,13.98,49,9,2.12,RU,1721617700
147,east london,-33.0153,27.9116,11.73,65,0,2.04,ZA,1721617701
148,sathupalli,17.2497,80.869,24.38,93,100,4.95,IN,1721617702
149,kismayo,-0.3582,42.5454,24.12,79,79,6.39,SO,1721617703
150,santa isabel,-23.3156,-46.2214,13.61,90,0,0.9,BR,1721617705
151,aasiaat,68.7098,-52.8699,3.54,85,50,2.36,GL,1721617706
152,marsh harbour,26.5412,-77.0636,28.61,75,100,5.95,BS,1721617707
153,puerto armuelles,8.2833,-82.8667,27.27,87,100,0.45,PA,1721617708
154,ambodivoara,-14.3397,49.9826,18.77,84,90,1.28,MG,1721617710
155,celestun,20.8667,-90.4,25.85,91,100,5.39,MX,1721617711
156,st. john's,47.5649,-52.7093,17.31,87,18,0.45,CA,1721617712
157,karimnagar,18.4333,79.15,23.83,92,100,5.54,IN,1721617713
158,praia da vitoria,38.7333,-27.0667,23.75,87,76,1.75,PT,1721617715
159,slave lake,55.2834,-114.769,25.42,58,3,2.44,CA,1721617716
160,ayancik,41.9447,34.5861,24.37,80,0,2.5,TR,1721617717
161,ceeldheer,3.8488,47.1806,23.75,88,100,7.37,SO,1721617718
162,filey,54.21,-0.2892,14.32,84,58,3.58,GB,1721617719
163,hadibu,12.65,54.0333,26.07,80,100,15.13,YE,1721617721
164,saint-gaudens,43.0833,0.6667,13.34,86,94,0.61,FR,1721617722
165,imbituba,-28.24,-48.6703,17.7,80,100,1.59,BR,1721617723
166,mount gambier,-37.8333,140.7667,13.58,93,100,4.78,AU,1721617724
167,kargopol',61.5071,38.9456,14.53,75,31,1.89,RU,1721617726
168,college,64.8569,-147.8028,27.82,35,20,0.0,US,1721617727
169,mahina,-17.5065,-149.489,25.87,61,0,4.63,PF,1721617728
170,pandan,14.0453,124.1694,27.04,89,100,6.89,PH,1721617729
171,mossendjo,-2.9506,12.7261,17.0,89,17,0.68,CG,1721617730
172,margaret river,-33.95,115.0667,17.34,71,88,8.85,AU,1721617729
173,san pedro piedra gorda,22.45,-102.35,21.13,57,49,6.73,MX,1721617733
174,al kharj,24.155,47.3346,34.32,15,0,2.13,SA,1721617734
175,chak jhumra,31.5678,73.1835,39.34,34,15,3.58,PK,1721617735
176,badeggi,9.05,6.15,23.0,96,100,1.38,NG,1721617736
177,albany,42.6001,-73.9662,20.3,73,100,1.78,US,1721617482
178,kailua-kona,19.6406,-155.9956,27.38,86,50,1.34,US,1721617739
179,salinopolis,-0.6136,-47.3561,26.35,80,1,4.43,BR,1721617740
180,caleta de carquin,-11.0925,-77.6267,16.44,82,32,3.67,PE,1721617741
181,tralee,52.2704,-9.7026,14.06,94,92,3.81,IE,1721617743
182,emporia,38.4039,-96.1817,21.11,78,0,1.54,US,1721617744
183,ketchikan,55.3422,-131.6461,16.86,73,100,2.2,US,1721617745
184,weno,7.4515,151.8468,28.56,79,97,4.68,FM,1721617746
185,alta sierra,35.7291,-118.5495,26.17,31,0,2.49,US,1721617748
186,kadayanallur,9.0833,77.35,27.23,72,100,4.46,IN,1721617749
187,stanley,54.868,-1.6985,13.17,91,100,1.54,GB,1721617750
188,shahrak,34.1074,64.3052,19.3,32,0,2.03,AF,1721617752
189,sisimiut,66.9395,-53.6735,6.98,72,96,0.77,GL,1721617753
190,byron bay,-28.65,153.6167,17.73,51,1,2.85,AU,1721617754
191,shimoda,34.6667,138.95,32.84,64,6,5.1,JP,1721617755
192,pingnan,23.5543,110.3976,32.0,66,51,4.53,CN,1721617756
193,tangalle,6.024,80.7911,28.09,72,31,4.51,LK,1721617759
194,mount pearl,47.5166,-52.7813,16.85,87,15,1.79,CA,1721617760
195,warrnambool,-38.3833,142.4833,13.8,83,100,7.29,AU,1721617761
196,koryazhma,61.3143,47.1691,14.26,68,79,2.16,RU,1721617763
197,an nuhud,12.7,28.4333,26.85,69,78,5.57,SD,1721617766
198,americus,32.0724,-84.2327,23.77,100,75,0.0,US,1721617767
199,birendranagar,28.6019,81.6339,26.48,86,96,1.34,NP,1721617769
200,novhorodka,48.3651,32.6578,21.84,54,100,4.66,UA,1721617771
201,booue,-0.0921,11.9385,22.33,71,98,1.09,GA,1721617772
202,codrington,-38.2667,141.9667,13.64,86,100,6.99,AU,1721617774
203,petropavlovsk-kamchatsky,53.0452,158.6483,19.33,60,20,7.0,RU,1721617775
204,nogliki,51.8333,143.1667,12.24,100,100,5.26,RU,1721617776
205,camocim,-2.9022,-40.8411,25.19,76,70,6.82,BR,1721617777
206,zheshart,62.0731,49.5733,14.23,53,36,2.65,RU,1721617778
207,vernon,50.2581,-119.2691,36.36,19,40,0.45,CA,1721617780
208,nova sintra,14.8667,-24.7167,24.21,80,18,2.16,CV,1721617781
209,puerto lempira,15.2667,-83.7667,26.39,92,83,3.55,HN,1721617782
210,xilin hot,43.9667,116.0333,29.61,43,63,5.66,CN,1721617783
211,christchurch,-43.5333,172.6333,10.38,72,100,8.75,NZ,1721617496
212,koutiala,12.3917,-5.4642,25.09,82,100,4.78,ML,1721617786
213,tura,25.5198,90.2201,26.26,90,98,2.62,IN,1721617787
214,zemio,5.0314,25.1361,18.88,98,99,0.81,CF,1721617788
215,horta,38.5333,-28.6333,22.23,85,1,2.03,PT,1721617789
216,leh,34.1667,77.5833,15.26,44,4,3.08,IN,1721617791
217,huai khot,15.2909,99.6166,30.58,79,99,1.28,TH,1721617792
218,badiyah,22.45,58.8,32.02,51,98,2.4,OM,1721617793
219,guebwiller,47.9167,7.2,19.61,95,91,2.05,FR,1721617794
220,siwa oasis,29.2041,25.5195,29.94,41,0,3.69,EG,1721617796
221,kurikka,62.6167,22.4167,15.68,83,100,1.71,FI,1721617797
222,crane,31.3974,-102.3501,24.98,55,99,8.32,US,1721617798
223,haiku-pauwela,20.9219,-156.3051,28.01,65,20,7.72,US,1721617799
224,carnarvon,-24.8667,113.6333,22.04,52,49,4.06,AU,1721617801
225,al hada,21.3675,40.2869,23.66,20,100,0.93,SA,1721617802
226,essaouira,31.5125,-9.77,21.04,81,0,11.58,MA,1721617804
227,udachny,66.4167,112.4,17.54,52,51,8.43,RU,1721617805
228,shar,49.5886,81.0453,25.07,46,63,3.31,KZ,1721617806
229,port-cartier,50.0334,-66.8654,14.86,72,46,7.09,CA,1721617807
230,springbok,-29.6643,17.8865,7.57,41,13,1.82,ZA,1721617809
231,sol'-iletsk,51.1631,54.9918,20.76,75,0,7.26,RU,1721617810
232,argo,37.6333,22.7333,24.32,47,0,2.26,GR,1721617811
233,ta`u,-14.2336,-169.5144,26.51,77,34,8.96,AS,1721617812
234,ukwa,21.9667,80.4667,24.41,96,100,1.77,IN,1721617814
235,khandyga,62.6667,135.6,15.77,88,99,2.26,RU,1721617815
236,jining,35.405,116.5814,28.47,90,100,2.37,CN,1721617817
237,hermanus,-34.4187,19.2345,9.14,81,22,2.67,ZA,1721617819
238,dudinka,69.4058,86.1778,9.06,51,18,7.19,RU,1721617820
239,tsiombe,-25.3,45.4833,17.66,84,43,1.92,MG,1721617821
240,mirnyy,62.5353,113.9611,25.11,58,17,3.66,RU,1721617823
241,kabalo,-6.05,26.9167,23.44,68,1,1.4,CD,1721617825
242,saipan,15.1355,145.701,30.39,79,100,5.14,MP,1721617826
243,inirida,3.8653,-67.9239,21.29,99,92,0.75,CO,1721617827
244,bria,6.5423,21.9863,20.01,97,90,1.08,CF,1721617828
245,avarua,-21.2078,-159.775,25.03,65,20,5.14,CK,1721617830
246,guano,-1.5833,-78.6333,8.83,90,82,2.29,EC,1721617831
247,queenstown,-31.8976,26.8753,3.3,38,1,2.62,ZA,1721617832
248,berezovyy,51.6667,135.7,15.66,98,100,1.43,RU,1721617833
249,mweka,-4.85,21.5667,20.18,59,32,0.42,CD,1721617835
250,remire-montjoly,4.9167,-52.2667,24.02,100,0,0.51,GF,1721617836
251,mpika,-11.8343,31.4529,11.64,62,51,2.42,ZM,1721617837
252,stephenville,32.2207,-98.2023,24.58,82,93,5.51,US,1721617838
253,prayon,50.5762,5.6775,18.61,94,75,1.54,BE,1721617841
254,alushta,44.6667,34.4167,23.87,75,4,1.85,UA,1721617842
255,aral,40.5156,81.2636,28.96,33,100,3.0,CN,1721617843
256,shancheng,34.7953,116.0817,29.74,83,100,3.48,CN,1721617845
257,antofagasta,-23.65,-70.4,14.6,86,6,2.21,CL,1721617846
258,santa rosa,14.3122,121.1114,28.3,85,100,7.37,PH,1721617847
259,yardimli,38.9206,48.2372,20.07,65,1,1.25,AZ,1721617849
260,channapatna,12.65,77.2167,24.56,79,100,5.42,IN,1721617850
261,rabo de peixe,37.8,-25.5833,22.73,78,75,2.06,PT,1721617851
262,taltal,-25.4,-70.4833,13.75,72,0,1.48,CL,1721617852
263,port lincoln,-34.7333,135.8667,16.49,59,82,8.37,AU,1721617853
264,phan thiet,10.9333,108.1,30.97,63,88,7.22,VN,1721617855
265,saint-philippe,-21.3585,55.7679,21.77,77,0,2.34,RE,1721617856
266,edson,53.5835,-116.4356,25.28,54,0,3.82,CA,1721617808
267,nema,57.5067,50.5011,14.04,70,100,5.4,RU,1721617862
268,kovalam,8.3667,76.9967,24.05,94,100,2.57,IN,1721617863
269,labuan,5.2767,115.2417,28.45,75,97,4.85,MY,1721617864
270,tchintabaraden,15.8969,5.7985,27.4,63,92,1.0,NE,1721617866
271,martapura,-3.4167,114.85,32.05,70,0,1.54,ID,1721617867
272,wailua homesteads,22.0669,-159.378,27.44,76,40,5.66,US,1721617868
273,luderitz,-26.6481,15.1594,12.12,77,81,1.76,NA,1721617869
274,perry,37.2506,-83.1999,23.4,95,100,1.29,US,1721617870
275,dean funes,-30.4204,-64.3498,9.59,86,100,0.93,AR,1721617872
276,champerico,14.3,-91.9167,27.95,78,65,3.0,GT,1721617873
277,fort-shevchenko,44.5086,50.263,26.69,52,0,1.73,KZ,1721617874
278,kirensk,57.7853,108.1119,27.46,60,85,0.66,RU,1721617875
279,sao joao da barra,-21.6403,-41.0511,20.21,83,19,1.8,BR,1721617876
280,sitangkai,4.6628,119.3928,28.18,80,100,8.23,PH,1721617878
281,eforie sud,44.0229,28.6494,20.45,81,0,3.9,RO,1721617879
282,kamyshin,50.0983,45.416,23.52,47,41,1.95,RU,1721617880
283,tiksi,71.6872,128.8694,4.34,99,100,2.36,RU,1721617881
284,niquero,20.0431,-77.5828,27.97,82,100,1.77,CU,1721617883
285,papao,-17.75,-149.55,25.82,69,100,11.37,PF,1721617884
286,at taj,24.2049,23.2857,28.03,26,20,3.06,LY,1721617885
287,rinconada,19.35,-96.5167,25.03,90,100,1.34,MX,1721617886
288,rio grande,-32.035,-52.0986,14.52,95,4,2.84,BR,1721617888
289,bechem,7.0903,-2.025,20.64,99,74,1.61,GH,1721617889
290,porto novo,6.4965,2.6036,23.31,87,18,2.95,BJ,1721617890
291,ayr,55.4627,-4.6339,14.06,94,100,2.06,GB,1721617891
292,natal,-5.795,-35.2094,22.36,83,20,2.06,BR,1721617892
293,refahiye,39.9008,38.7667,14.49,82,0,1.17,TR,1721617894
294,moree,-29.4667,149.85,15.83,47,0,4.09,AU,1721617895
295,jamestown,42.097,-79.2353,19.8,85,0,0.45,US,1721617896
296,quellon,-43.1167,-73.6167,8.97,87,96,2.09,CL,1721617897
297,capim grosso,-11.3811,-40.0128,17.5,95,16,3.18,BR,1721617899
298,berezovo,63.9381,65.0419,15.06,53,5,1.99,RU,1721617900
299,pemba,-12.974,40.5178,22.74,62,72,2.57,MZ,1721617901
300,karatuzskoye,53.6072,92.8667,16.04,96,100,2.04,RU,1721617902
301,georgetown,5.4112,100.3354,31.96,62,20,3.6,MY,1721617646
302,arroyo seco,-33.1549,-60.5086,12.23,10,52,1.33,AR,1721617906
303,mombetsu,44.3525,143.3525,26.57,61,55,5.87,JP,1721617907
304,muli,2.9167,73.5667,28.82,75,100,2.66,MV,1721617908
305,egilsstadir,65.2653,-14.3948,8.33,79,100,6.4,IS,1721617910
306,churapcha,62.0025,132.4325,23.98,54,0,2.56,RU,1721617911
307,lincoln,40.8,-96.667,22.32,81,14,2.1,US,1721617912
308,mancio lima,-7.6142,-72.8958,24.01,61,29,0.96,BR,1721617913
309,suva,-18.1416,178.4415,27.71,74,40,2.57,FJ,1721617915
310,san martin de los andes,-40.1604,-71.3486,2.48,68,26,2.0,AR,1721617916
311,jayapura,-2.5333,140.7,28.66,80,56,2.08,ID,1721617917
312,fada,7.25,4.0667,20.75,99,56,0.9,NG,1721617918
313,rohru,31.2167,77.75,22.04,85,72,1.46,IN,1721617919
314,winneba,5.3511,-0.6231,23.08,91,84,3.21,GH,1721617921
315,moose jaw,50.4001,-105.5344,27.03,41,60,3.17,CA,1721617922
316,sungai penuh,-2.0833,101.3833,25.75,61,58,1.83,ID,1721617923
317,asha,54.9973,57.2722,16.72,97,100,3.11,RU,1721617924
318,huarmey,-10.0681,-78.1522,16.94,82,39,3.42,PE,1721617925
319,cole harbour,44.6724,-63.4751,17.06,79,28,2.54,CA,1721617927
320,qaryat suluq,31.6682,20.2521,25.43,66,0,3.11,LY,1721617928
321,la baneza,42.3003,-5.8977,15.55,85,0,0.92,ES,1721617929
322,onega,63.9061,38.1404,13.85,63,62,1.37,RU,1721617930
323,bargaal,11.2864,51.0773,29.29,57,100,13.83,SO,1721617932
324,vera cruz,-12.6333,-41.0333,18.42,82,100,2.13,BR,1721617933
325,kyelang,32.5833,77.0333,12.8,64,14,1.44,IN,1721617934
326,yima,34.7381,111.8839,31.68,65,69,0.74,CN,1721617935
327,kincardine,56.0667,-3.7167,13.84,95,100,0.74,GB,1721617936
328,saint croix,17.7397,-64.7388,27.2,81,0,3.09,VI,1721617938
329,isafjordur,66.0755,-23.124,4.6,87,100,5.56,IS,1721617940
330,bochum,51.4833,7.2167,17.64,89,75,0.45,DE,1721617941
331,kindu,-2.95,25.95,21.82,93,100,1.09,CD,1721617943
332,gornozavodsk,58.3758,58.3211,10.18,78,57,4.93,RU,1721617944
333,chonchi,-42.6128,-73.8092,6.18,91,39,0.95,CL,1721617945
334,sai buri,6.7013,101.6168,32.2,66,98,1.9,TH,1721617946
335,constantia,44.1833,28.65,20.39,79,0,3.93,RO,1721617947
336,kantilo,20.35,85.1833,26.76,87,100,1.53,IN,1721617949
337,makoua,0.0069,15.6333,22.85,61,67,1.21,CG,1721617950
338,freetown,8.484,-13.2299,24.25,91,100,3.07,SL,1721617951
339,macedo de cavaleiros,41.5382,-6.9611,16.94,49,0,3.13,PT,1721617952
340,polyarnyy,69.1989,33.4478,17.47,65,29,4.02,RU,1721617954
341,umba,66.6871,34.3429,12.45,64,63,0.62,RU,1721617955
342,zyryanovsk,49.7386,84.2719,16.93,82,55,1.0,KZ,1721617956
343,lompoc,34.6391,-120.4579,16.58,86,100,4.63,US,1721617957
344,tommot,58.9564,126.2925,25.43,49,100,2.66,RU,1721617958
345,hithadhoo,-0.6,73.0833,29.41,70,37,6.23,MV,1721617960
346,irbit,57.6705,63.071,12.7,77,98,3.23,RU,1721617961
347,suntar,62.1444,117.6319,26.85,45,62,1.95,RU,1721617962
348,turiacu,-1.6633,-45.3717,22.63,88,36,1.62,BR,1721617963
349,sarikei,2.1167,111.5167,32.87,57,86,1.39,MY,1721617965
350,palmer,42.1584,-72.3287,22.5,79,40,0.0,US,1721617966
351,san matias,-16.3667,-58.4,23.11,29,0,2.67,BO,1721617967
352,walvis bay,-22.9575,14.5053,11.72,89,83,0.77,NA,1721617968
353,jorhat,26.75,94.2167,25.14,97,100,2.57,IN,1721617969
354,enewetak,11.3474,162.3373,28.62,80,76,7.85,MH,1721617971
355,kapa'a,22.0752,-159.319,28.18,73,40,5.66,US,1721617972
356,ridgecrest,35.6225,-117.6709,38.9,17,2,4.47,US,1721617973
357,berehomet,48.1788,25.3486,15.84,99,100,1.73,UA,1721617976
358,kangding,30.0513,101.9603,23.46,73,95,1.32,CN,1721617977
359,moyynkum,44.2914,72.9469,29.21,28,0,1.68,KZ,1721617978
360,san clemente del tuyu,-36.3569,-56.7235,10.38,91,99,2.13,AR,1721617979
361,trevelin,-43.0858,-71.4639,2.71,81,100,1.87,AR,1721617980
362,kalymnos,36.95,26.9833,23.74,88,0,2.57,GR,1721617982
363,sao jose da coroa grande,-8.8978,-35.1478,23.15,86,95,5.22,BR,1721617983
364,lokomotivnyy,53.0118,60.5684,18.63,85,100,2.58,RU,1721617984
365,x-can,20.8593,-87.6697,25.12,91,99,1.4,MX,1721617985
366,san patricio,28.017,-97.5169,29.36,73,37,4.65,US,1721617987
367,katsuura,35.1333,140.3,29.3,76,46,4.94,JP,1721617988
368,coquimbo,-29.9533,-71.3436,10.85,74,0,2.57,CL,1721617989
369,casablanca,33.5928,-7.6192,22.96,78,0,2.68,MA,1721617990
370,nelson bay,-32.7167,152.15,18.89,54,6,0.89,AU,1721617109
371,alice springs,-23.7,133.8833,16.75,29,0,5.14,AU,1721617993
372,el calafate,-50.3408,-72.2768,4.06,96,100,4.74,AR,1721617994
373,tabriz,38.08,46.2919,19.7,64,20,4.12,IR,1721617995
374,ardabil,38.2498,48.2933,17.86,85,100,1.35,IR,1721617996
375,malango,-2.9627,119.9001,25.23,75,94,1.8,ID,1721617997
376,vadso,70.0744,29.7487,20.49,72,0,0.0,NO,1721617999
377,vyazemskiy,47.5378,134.7525,25.7,74,43,4.71,RU,1721618000
378,puerto aysen,-45.4,-72.7,6.95,99,100,3.08,CL,1721618001
379,archangelos,36.2149,28.1149,25.99,66,0,4.33,GR,1721618002
380,morondava,-20.2833,44.2833,17.73,72,0,2.04,MG,1721618004
381,sikasso,10.9167,-7.0,23.9,80,100,4.08,ML,1721618005
382,la passe,45.5549,-0.8967,17.13,71,63,3.47,FR,1721618006
383,susuman,62.7833,148.1667,17.13,72,100,0.71,RU,1721618007
384,shuangyang,43.5242,125.6736,28.73,75,100,4.17,CN,1721618008
385,villamontes,-21.25,-63.5,12.09,77,7,0.64,BO,1721618010
386,abaza,52.655,90.0928,20.04,76,89,1.27,RU,1721618011
387,bamboo flat,11.7,92.7167,29.05,89,100,4.63,IN,1721618012
388,bozoum,6.3193,16.3799,20.14,96,100,1.17,CF,1721618013
389,argostolion,38.1811,20.489,28.19,35,0,3.0,GR,1721618015
390,ghat,24.9647,10.1728,29.47,17,0,1.42,LY,1721618016
391,usogorsk,63.4106,48.6872,14.57,48,95,1.66,RU,1721618017
392,najran,17.4924,44.1277,32.36,21,88,2.95,SA,1721618018
393,al bawiti,28.3492,28.8659,28.32,37,0,2.59,EG,1721618019
394,longavi,-35.9667,-71.6833,5.77,95,0,2.23,CL,1721618021
395,vadippatti,10.0833,77.95,28.64,54,100,1.15,IN,1721618022
396,alibag,18.6411,72.8792,26.04,89,100,8.54,IN,1721618024
397,reuleuet,5.2167,96.2833,30.42,60,97,1.58,ID,1721618026
398,talodi,10.6325,30.3797,22.23,94,97,1.59,SD,1721618027
399,salaga,8.5508,-0.5188,22.41,97,38,2.64,GH,1721618028
400,chibougamau,49.9168,-74.3659,9.24,85,90,2.89,CA,1721618029
401,videle,44.2781,25.5244,21.46,71,0,1.41,RO,1721618030
402,mwinilunga,-11.7358,24.4293,14.21,42,0,1.42,ZM,1721618032
403,howrah,22.5892,88.3103,29.0,89,75,3.09,IN,1721618033
404,bahce,37.1972,36.5766,22.89,86,4,2.05,TR,1721618034
405,nagqu,31.5,92.0,10.95,75,100,1.24,CN,1721618035
406,rikaze,29.25,88.8833,17.53,44,100,0.77,CN,1721618037
407,alofi,-19.0595,-169.9187,24.54,73,5,8.17,NU,1721618038
408,antalaha,-14.9003,50.2788,20.44,83,88,2.4,MG,1721618039
409,ituiutaba,-18.9689,-49.465,19.08,41,0,1.78,BR,1721618040
410,baukau,51.5526,7.2042,17.94,88,68,2.33,DE,1721618041
411,tongliao,43.6125,122.2653,32.36,50,100,6.16,CN,1721618043
412,aswan,24.0934,32.907,32.43,19,99,4.76,EG,1721618044
413,vila franca do campo,37.7167,-25.4333,23.23,89,1,2.09,PT,1721618046
414,joaima,-16.6542,-41.0306,17.83,94,57,1.29,BR,1721618048
415,chincha alta,-13.4099,-76.1323,13.33,86,17,2.33,PE,1721618049
416,waddan,29.1614,16.139,27.93,40,0,2.05,LY,1721618050
417,vuktyl,63.8567,57.3094,13.09,56,74,1.53,RU,1721618051
418,pishva,35.308,51.7267,28.33,43,9,4.51,IR,1721618052
419,kaa-khem,51.6833,94.7333,19.45,78,100,3.32,RU,1721618054
420,port saint john's,-31.6229,29.5448,13.64,81,67,2.4,ZA,1721618055
421,yaiza,28.9633,-13.7631,19.87,88,20,8.75,ES,1721618056
422,kaka,37.3482,59.6143,33.01,16,0,1.28,TM,1721618057
423,sorong,-0.8833,131.25,26.32,81,98,4.03,ID,1721618059
424,taulaga,-11.0553,-171.0883,27.68,76,2,10.06,AS,1721618060
425,petauke,-14.2426,31.3253,15.68,50,7,2.32,ZM,1721618061
426,fortuna,40.5982,-124.1573,16.31,90,100,5.14,US,1721618062
427,aykhal,66.0,111.5,16.61,54,62,8.87,RU,1721618063
428,zalingei,12.9096,23.4741,22.48,84,96,1.66,SD,1721618065
429,ayorou,14.7308,0.9174,27.78,70,76,3.61,NE,1721618066
430,saudarkrokur,65.7461,-19.6394,4.39,98,100,4.0,IS,1721618067
431,lensk,60.7253,114.9278,29.89,37,8,1.89,RU,1721618068
432,newman,37.3138,-121.0208,33.49,51,0,1.34,US,1721618070
433,gwadar,25.1216,62.3254,28.55,83,100,1.14,PK,1721618071
434,tabligbo,6.5833,1.5,23.4,87,79,2.7,TG,1721618072
435,remontnoye,46.5614,43.6501,25.94,34,4,3.04,RU,1721618073
436,ponta delgada,37.7333,-25.6667,23.4,78,75,2.06,PT,1721618074
437,laojunmiao,39.8333,97.7333,25.13,22,19,5.54,CN,1721618076
438,isangel,-19.55,169.2667,24.62,73,89,5.55,VU,1721618077
439,acarau,-2.8856,-40.12,24.88,84,66,6.12,BR,1721618078
440,neiafu,-18.65,-173.9833,27.38,69,20,4.63,TO,1721618079
441,dwarka,22.2394,68.9678,28.38,88,99,8.27,IN,1721618080
442,bor,56.3567,44.0669,17.96,94,100,4.4,RU,1721618082
443,burumburum,11.3911,8.7234,21.57,91,100,3.56,NG,1721618083
444,illizi,26.4833,8.4667,31.47,15,0,4.88,DZ,1721618084
445,korla,41.7597,86.1469,29.7,31,87,3.76,CN,1721618085
446,castillos,-34.1667,-53.8333,10.72,96,80,2.27,UY,1721618087
447,basco,20.4487,121.9702,29.71,80,100,9.66,PH,1721618088
448,constitucion,-35.3333,-72.4167,9.35,86,0,1.73,CL,1721618089
449,saddiqabad,28.3062,70.1307,35.72,42,79,5.51,PK,1721618090
450,muisne,0.6,-80.0333,23.33,87,99,4.25,EC,1721618091
451,taoudenni,22.6783,-3.9836,36.18,25,8,3.49,ML,1721618093
452,keflavik,64.0049,-22.5624,9.24,76,75,6.69,IS,1721618094
453,mar del plata,-38.0023,-57.5575,6.6,91,0,1.34,AR,1721618095
454,garrni,40.1193,44.7344,16.33,61,0,1.7,AM,1721618096
455,souillac,-20.5167,57.5167,17.97,79,4,3.4,MU,1721618098
456,changchun,43.88,125.3228,27.54,81,100,3.57,CN,1721618099
457,dnipro,48.45,34.9833,23.62,29,99,2.93,UA,1721617910
458,guiuan,11.0333,125.7247,29.32,74,100,6.91,PH,1721618101
459,narvik,68.4384,17.4272,20.67,58,43,3.49,NO,1721618102
460,bandon,51.7469,-8.7425,14.77,93,64,4.59,IE,1721618104
461,boone,39.0334,-92.3335,21.96,90,9,1.76,US,1721618105
462,challapata,-18.9,-66.7667,7.46,27,0,2.76,BO,1721618106
463,margate,51.3813,1.3862,14.83,73,16,5.67,GB,1721618108
464,kamen'-na-obi,53.7884,81.3423,20.84,72,96,2.09,RU,1721618109
465,valverde del camino,37.5751,-6.7543,18.35,46,0,1.37,ES,1721618110
466,bhiwadi,28.2102,76.8606,31.74,53,8,4.82,IN,1721618111
467,massaguet,12.4755,15.4365,27.12,73,76,3.18,TD,1721618113
468,severo-yeniseyskiy,60.3725,93.0408,22.36,57,55,2.2,RU,1721618114
469,trenggalek,-8.05,111.7167,28.71,79,69,2.93,ID,1721618115
470,tabou,4.423,-7.3528,23.81,85,96,4.8,CI,1721618116
471,minas de marcona,-15.2119,-75.1103,9.45,91,40,4.87,PE,1721618118
472,kapuskasing,49.4169,-82.4331,13.33,79,99,1.1,CA,1721618119
473,svetlyy,54.675,20.1347,13.03,93,0,2.53,RU,1721618120
474,luanda,-8.8368,13.2343,18.39,89,64,2.29,AO,1721618121
475,esil,51.9556,66.4042,24.23,53,31,4.37,KZ,1721618122
476,puerto real,36.5282,-6.1901,21.09,88,0,2.57,ES,1721618124
477,solnechnyy,50.7214,136.6319,14.54,98,100,2.81,RU,1721618125
478,itupiranga,-5.1347,-49.3267,22.69,47,5,1.63,BR,1721618126
479,rabigh,22.7986,39.0349,30.42,70,100,3.09,SA,1721618127
480,eraan,9.0629,117.7016,31.68,63,100,4.18,PH,1721618129
481,northam,51.0333,-4.2167,17.59,95,100,7.33,GB,1721618130
482,ouesso,1.6136,16.0517,22.57,74,98,0.92,CG,1721618131
483,norilsk,69.3535,88.2027,9.34,53,12,6.79,RU,1721618132
484,tarauaca,-8.1614,-70.7656,23.81,62,0,0.72,BR,1721618135
485,smara,26.7384,-11.6719,23.21,64,34,4.98,EH,1721618136
486,san blas,21.5167,-105.2667,28.94,79,39,1.45,MX,1721618137
487,saynshand,44.8824,110.1163,26.39,40,0,7.47,MN,1721618139
488,xam nua,20.4197,104.0439,28.9,57,90,1.04,LA,1721618140
489,wamba,8.9333,8.6,21.51,96,99,1.48,NG,1721618141
490,bayanhongor,46.7167,100.1167,17.8,42,26,1.55,MN,1721618142
491,klyuchi,52.2667,79.1667,19.66,82,78,5.33,RU,1721618143
492,cuito,-12.3833,16.9333,11.52,27,6,0.9,AO,1721618145
493,tolanaro,-25.0319,46.9987,18.04,94,20,1.03,MG,1721618146
494,forster,-32.1667,152.5167,18.54,47,0,2.64,AU,1721618147
495,alo,6.5486,4.2686,23.73,88,32,3.37,NG,1721618148
496,thulamahashi,-24.7246,31.1994,17.28,91,73,0.41,ZA,1721618149
497,chuguyevka,44.1653,133.8633,23.19,94,94,3.12,RU,1721618151
498,villa canas,-34.0057,-61.6076,9.4,10,0,0.92,AR,1721618152
499,warsaw,52.2298,21.0118,21.03,71,0,3.13,PL,1721618153
500,alotau,-10.3069,150.4462,24.18,93,100,2.05,PG,1721618156
501,sume,-7.6717,-36.88,17.3,85,82,2.27,BR,1721618157
502,sweet home,44.3976,-122.7362,24.62,63,0,0.89,US,1721618158
503,kristiansund,63.1115,7.732,14.03,96,100,5.14,NO,1721618159
504,ubari,26.5921,12.7805,29.9,21,0,1.49,LY,1721618161
505,thunder bay,48.4001,-89.3168,13.99,88,0,1.03,CA,1721618162
506,colon,9.3592,-79.9014,24.97,89,95,1.34,PA,1721618163
507,cuenca,-2.8833,-78.9833,14.07,67,75,2.06,EC,1721618164
508,radashkovichy,54.1551,27.2424,16.89,80,81,0.25,BY,1721618165
509,bengkulu,-3.8004,102.2655,28.96,68,19,3.26,ID,1721618167
510,fort bragg,35.139,-79.006,28.08,81,75,2.57,US,1721618169
511,north side,19.35,-81.2,29.04,85,20,3.6,KY,1721618170
512,mantua,45.1667,10.7833,24.08,91,100,0.89,IT,1721618172
513,labrador city,52.9463,-66.9114,8.95,87,100,6.69,CA,1721618173
514,molde,62.7375,7.1591,13.91,94,20,2.06,NO,1721618174
515,naze,28.3667,129.4833,31.51,71,20,4.76,JP,1721618175
516,aldama,22.9167,-98.0667,26.94,91,39,1.11,MX,1721618176
517,broome,42.2506,-75.833,20.37,77,98,0.45,US,1721618178
518,murun-kuren,49.6342,100.1625,19.9,60,0,2.09,MN,1721618179
519,danshui,22.7984,114.4672,32.34,61,36,4.63,CN,1721618180
520,oliver,49.1831,-119.5524,35.8,26,74,2.57,CA,1721618181
521,hinton,53.4001,-117.5857,27.31,44,0,5.03,CA,1721618182
522,nemuro,43.3236,145.575,20.49,84,23,8.6,JP,1721618184
523,karliova,39.2983,41.0142,13.65,72,0,2.5,TR,1721618185
524,clorinda,-25.2848,-57.7185,19.56,77,0,2.54,AR,1721618186
525,shingu,33.7333,135.9833,34.37,55,37,2.61,JP,1721618187
526,mulayjah,27.271,48.4242,34.22,16,20,4.27,SA,1721618943
527,hortolandia,-22.8583,-47.22,16.49,82,0,4.12,BR,1721618944
528,dakhla,23.6848,-15.958,19.34,92,1,5.31,EH,1721618945
529,goondiwindi,-28.55,150.3167,16.15,43,0,3.66,AU,1721618947
530,rakops,-21.0167,24.3333,13.44,24,2,0.83,BW,1721618948
531,mombasa,-4.0547,39.6636,22.23,83,40,2.06,KE,1721618949
532,fort mcmurray,56.7268,-111.381,26.73,65,100,1.03,CA,1721618951
533,kyzyl,51.7,94.45,19.69,67,100,2.93,RU,1721618952
534,itaituba,-4.2761,-55.9836,23.85,66,0,0.53,BR,1721618953
535,flinders view,-27.6505,152.7745,21.76,38,0,2.57,AU,1721618954
536,trincomalee,8.5711,81.2335,29.24,70,31,8.84,LK,1721618957
537,sierra grande,-41.606,-65.3557,15.3,29,2,5.6,AR,1721618958
538,namibe,-15.1961,12.1522,15.88,91,0,2.68,AO,1721618959
539,port moresby,-9.4431,147.1797,27.68,69,75,5.14,PG,1721618960
540,toamasina,-18.1667,49.3833,17.0,94,20,1.54,MG,1721618962
541,el granada,37.5027,-122.4694,19.82,83,100,5.14,US,1721618963
542,prince george,53.9166,-122.753,30.69,40,0,3.6,CA,1721618964
543,gotsucho,35.0,132.2167,30.06,69,0,4.15,JP,1721618965
544,plastun,44.7561,136.2939,31.7,40,2,3.26,RU,1721618967
545,masterton,-40.9597,175.6575,12.16,90,100,3.42,NZ,1721618968
546,puerto ayacucho,5.6639,-67.6236,22.89,96,96,1.74,VE,1721618969
547,lae,-6.7221,146.9847,26.37,76,88,2.91,PG,1721618970
548,coswig,51.1333,13.5833,22.38,83,20,1.54,DE,1721618971
549,kuching,1.55,110.3333,33.34,72,20,4.12,MY,1721618973
550,hinthada,17.6333,95.4667,25.2,93,100,2.18,MM,1721618974
551,belmonte,-15.8631,-38.8828,21.63,77,27,3.76,BR,1721618975
552,likiep,9.8251,169.3107,28.24,80,62,6.54,MH,1721618976
553,suoyarvi,62.0833,32.35,13.92,73,6,2.15,RU,1721618977
554,jaguaribe,-5.8906,-38.6219,23.76,59,93,2.18,BR,1721618979
555,shalqar,47.8333,59.6,26.22,49,100,2.23,KZ,1721618980
556,port douglas,-16.4833,145.4667,22.51,59,95,6.94,AU,1721618981
557,nurota,40.5614,65.6886,30.62,22,0,3.48,UZ,1721618982
558,al bardiyah,31.7561,25.0865,25.64,84,0,4.88,LY,1721618984
559,vila do maio,15.1333,-23.2167,25.44,75,60,1.53,CV,1721618985
560,bonthe,7.5264,-12.505,24.35,92,100,3.46,SL,1721618986
561,melekeok village,7.4957,134.6367,32.31,66,75,4.63,PW,1721618987
562,qarqin,37.4185,66.0436,33.41,19,0,2.06,AF,1721618988
563,happy valley-goose bay,53.3168,-60.3315,11.17,71,40,2.06,CA,1721618990
564,geraldton,-28.7667,114.6,19.23,63,100,2.57,AU,1721618991
565,roxas,11.5853,122.7511,25.64,75,100,3.67,PH,1721618992
566,reitz,-27.8014,28.4273,3.55,18,34,1.46,ZA,1721618993
567,nyaunglebin,17.95,96.7333,25.8,89,100,1.91,MM,1721618995
568,lugazi,0.3772,32.9197,18.09,96,99,1.54,UG,1721618996
569,nyurba,63.2842,118.3319,24.96,47,69,3.0,RU,1721618997
570,puerto carreno,6.189,-67.4859,23.99,93,100,2.53,CO,1721619000
571,cannonvale,-20.2833,148.7,22.55,58,0,6.77,AU,1721619001
572,kayangel,8.0823,134.7173,27.83,76,100,2.43,PW,1721618597
573,dipolog,8.5894,123.3414,29.43,89,86,1.46,PH,1721619003
